"id","ident","type","name","latitude_deg","longitude_deg","elevation_ft","continent","iso_country","iso_region","municipality","scheduled_service","gps_code","iata_code","local_code","home_link","wikipedia_link","keywords"
25321,"UT78","heliport","Timpanogos Regional Hospital Heliport",40.312933,-111.714455,4735,"NA","US","US-UT","Orem","no","UT78",,"UT78",,,
25322,"UT79","small_airport","3-I Rocker Ranch Airport",40.41559982299805,-109.34400177001953,4865,"NA","US","US-UT","Jensen","no","UT79",,"UT79",,,
25323,"UT80","small_airport","Hamilton Fort Ranch Airport",37.634700775146484,-113.15899658203125,5460,"NA","US","US-UT","Cedar City","no","UT80",,"UT80",,,
25324,"UT81","heliport","Blanding Ambulance Heliport",37.63560104370117,-109.48400115966797,5900,"NA","US","US-UT","Blanding","no","UT81",,"UT81",,,
25325,"UT82","small_airport","Beryl Junction Airport",37.709999084472656,-113.64600372314453,5181,"NA","US","US-UT","Beryl","no","UT82",,"UT82",,,
25326,"UT83","small_airport","Thunder Ridge Airpark",40.263806,-110.865183,7050,"NA","US","US-UT","Fruitland","no","UT83",,"UT83",,,
25327,"UT84","heliport","Skaggs Heliport",40.68830108642578,-111.89199829101562,4289,"NA","US","US-UT","South Salt Lake City","no","UT84",,"UT84",,,
45862,"UT85","heliport","Cirque Lodge Studio Heliport",40.311547,-111.66568,4860,"NA","US","US-UT","Orem","no","UT85",,"UT85",,,
45865,"UT86","heliport","Miller Motorsports Park Heliport",40.583624,-112.383013,4403,"NA","US","US-UT","Tooele","no","UT86",,"UT86",,,
45864,"UT87","heliport","Jordan Valley Hospital Heliport",40.591144,-111.976341,4590,"NA","US","US-UT","West Jordan","no","UT87",,"UT87",,,
351328,"UT89","small_airport","Cold Water Airport",41.681612,-111.98181,4926,"NA","US","US-UT","Mendon","no","UT89",,"UT89",,,
324447,"UT90","small_airport","CAVOK Ranch Airport",41.585369,-111.9037,5155,"NA","US","US-UT","Wellsville","no","UT90",,"UT90",,,
355690,"UT92","heliport","UBMC Vernal Helipad 1",40.462114,-109.540625,5371,"NA","US","US-UT","Vernal","no","UT92",,"UT92",,,
524208,"UT95","heliport","St. Mark's Hospital Helipad",40.68644,-111.856627,4498,"NA","US","US-UT","Millcreek","no","UT95",,"UT95",,,
25328,"UT97","small_airport","Happy Canyon Airport",38.15719985961914,-110.29199981689453,4934,"NA","US","US-UT","Happy Canyon","no","UT97",,"UT97",,,
25329,"UT98","heliport","Redwood Health Center Heliport",40.72560119628906,-111.93399810791016,4258,"NA","US","US-UT","Salt Lake City","no","UT98",,"UT98",,,
25330,"UT99","small_airport","West Desert Airpark",40.243268,-112.092018,4890,"NA","US","US-UT","Fairfield","no","KUT9",,"UT9",,,"UT99, Cedar Valley"
26380,"UTAA","large_airport","Ashgabat International Airport",37.986801,58.361,692,"AS","TM","TM-S","Ashgabat","yes","UTAA","ASB",,,"https://en.wikipedia.org/wiki/Ashgabat_International_Airport","Saparmurat Turkmenbashy International Airport"
26381,"UTAK","medium_airport","Turkmenbashi International Airport",40.063301,53.007198,279,"AS","TM","TM-B","Turkmenbashi","yes","UTAK","KRW",,,"https://en.wikipedia.org/wiki/Turkmenbashi_International_Airport",
26382,"UTAM","medium_airport","Mary International Airport",37.62353,61.895668,728,"AS","TM","TM-M","Mary","yes","UTAM","MYP",,,"https://en.wikipedia.org/wiki/Mary_International_Airport",
26383,"UTAT","medium_airport","Daşoguz Airport",41.759853,59.836149,272,"AS","TM","TM-D","Daşoguz","yes","UTAT","TAZ",,,"https://en.wikipedia.org/wiki/Da%C5%9Foguz_Airport","Tashauz Airport, Dashkhovuz, Dashhowuz, Dashoguz, Dasoguz, Дашогуз"
26384,"UTAV","medium_airport","Türkmenabat International Airport",38.930662,63.563982,649,"AS","TM","TM-L","Türkmenabat","yes","UTAV","CRZ",,,"https://en.wikipedia.org/wiki/Turkmenabat_International_Airport","Turkmenabad Airport, Chardzhou Airport, Аэропорт Туркменабат, Аэропорт Туркменабад , Аэропорт Чарджоу, چهارجوی"
26385,"UTDD","medium_airport","Dushanbe Airport",38.543301,68.824997,2575,"AS","TJ","TJ-DU","Dushanbe","yes","UTDD","DYU",,,"https://en.wikipedia.org/wiki/Dushanbe_Airport",
6377,"UTDK","medium_airport","Kulob Airport",37.98809814453125,69.80500030517578,2293,"AS","TJ","TJ-KT","Kulyab","yes","UTDK","TJU",,,"https://en.wikipedia.org/wiki/Kulob_Airport",
26386,"UTDL","medium_airport","Khujand Airport",40.215401,69.694702,1450,"AS","TJ","TJ-SU","Khujand","yes","UTDL","LBD",,,"https://en.wikipedia.org/wiki/Khudzhand_Airport","Khodjend, Khodzhent, Leninabad, Khudzhand"
32556,"UTDT","medium_airport","Qurghonteppa International Airport",37.86640167236328,68.86470031738281,1473,"AS","TJ","TJ-KT","Kurgan-Tyube","yes","UTDT","KQT",,,"https://en.wikipedia.org/wiki/Qurghonteppa_International_Airport","Kurgan-Tube"
30672,"UTKA","medium_airport","Andizhan Airport",40.727699,72.293999,1515,"AS","UZ","UZ-AN","Andizhan","yes","UTFA","AZN",,,"https://en.wikipedia.org/wiki/Andizhan_Airport","UTKA, Andijan Airport"
31118,"UTKF","medium_airport","Fergana International Airport",40.358799,71.745003,1980,"AS","UZ","UZ-FA","Fergana","yes","UTFF","FEG",,,"https://en.wikipedia.org/wiki/Fergana_International_Airport","UTKF"
41794,"UTKK","small_airport","Kokand Airport",40.447183,70.989144,1357,"AS","UZ","UZ-FA","Kokand","no","UTKK","OQN",,,,"Kokand South"
32038,"UTKN","small_airport","Namangan Airport",40.9846,71.556702,1555,"AS","UZ","UZ-NG","Namangan","yes","UTFN","NMA",,,"https://en.wikipedia.org/wiki/Namangan_Airport",
32558,"UTNM","small_airport","Muynak Airport",43.753636,59.029884,177,"AS","UZ","UZ-QR","Muynak","no","UTNM","MOK",,,"https://en.wikipedia.org/wiki/Muynak_Airport",
32013,"UTNN","medium_airport","Nukus Airport",42.4884,59.623299,246,"AS","UZ","UZ-QR","Nukus","yes","UTNN","NCU",,,"https://en.m.wikipedia.org/wiki/Nukus_Airport",
32559,"UTNT","small_airport","Turtkul Airport",41.57500076293945,60.96659851074219,305,"AS","UZ","UZ-QR","Turtkul","no","UTNT",,,,,
26387,"UTNU","medium_airport","Urgench Airport",41.58430099487305,60.641700744628906,320,"AS","UZ","UZ-XO","Urgench","yes","UTNU","UGC",,,"https://en.wikipedia.org/wiki/Urgench_Airport",
32561,"UTSA","medium_airport","Navoi Airport",40.117199,65.170799,1140,"AS","UZ","UZ-NW","Navoi","yes","UTSA","NVI",,,"https://en.wikipedia.org/wiki/Navoi_International_Airport",
26388,"UTSB","medium_airport","Bukhara International Airport",39.775002,64.483299,751,"AS","UZ","UZ-BU","Bukhara","yes","UTSB","BHK",,,"https://en.wikipedia.org/wiki/Bukhara_International_Airport","Buhara Airport"
41812,"UTSH","small_airport","Shahrisabz Airport",39.068003,66.758388,1900,"AS","UZ","UZ-QA","Shahrisabz","no","UTSH",,,,,
26417,"UTSK","small_airport","Karshi Airport",38.802246,65.773068,1230,"AS","UZ","UZ-QA","Karshi","yes","UTSK","KSQ","UT1N",,"https://en.wikipedia.org/wiki/Karshi_Airport","Qarshi Airport"
26389,"UTSL","small_airport","Karshi-Khanabad Air Base",38.833599,65.921501,1365,"AS","UZ","UZ-QA","Khanabad","no","UTSL",,,,"https://en.wikipedia.org/wiki/Karshi-Khanabad_Air_Base","UTSL, K2 Air Base, Qarshi Khanabad Airport"
41821,"UTSM","small_airport","Tandy Bulak Airport",41.76079177856445,64.60240173339844,716,"AS","UZ","UZ-NW","Tandy Bulak","no","UTSM",,,,,
41685,"UTSN","small_airport","Sugraly Airport",41.613899,64.2332,1396,"AS","UZ","UZ-NW","Zarafshan","yes","UTSN","AFS",,,"https://en.wikipedia.org/wiki/Zarafshan_Airport",
41686,"UTSR","small_airport","Sariasiya Airport",38.41059875488281,67.94519805908203,1949,"AS","UZ","UZ-SU","Sariasiya","no","UTSR",,,,,
26390,"UTSS","medium_airport","Samarkand Airport",39.70050048828125,66.98380279541016,2224,"AS","UZ","UZ-SA","Samarkand","yes","UTSS","SKD",,,"https://en.wikipedia.org/wiki/Samarkand_Airport",
26391,"UTST","medium_airport","Termez Airport",37.287261,67.311869,1027,"AS","UZ","UZ-SU","Termez","yes","UTST","TMJ",,,"https://en.wikipedia.org/wiki/Termez_Airport",
32562,"UTSU","small_airport","Uchkuduk Airport",42.083099365234375,63.44929885864258,416,"AS","UZ","UZ-NW","Uchkuduk","no","UTSU",,,,,
41687,"UTTP","medium_airport","Tashkent East Airport",41.312889,69.395535,1574,"AS","UZ","UZ-TO","Tashkent","yes","UTTP",,,,,"Tashkent Vostochny Airport"
26392,"UTTT","large_airport","Tashkent International Airport",41.257900238,69.2811965942,1417,"AS","UZ","UZ-TO","Tashkent","yes","UTTT","TAS",,,"https://en.wikipedia.org/wiki/Tashkent_International_Airport",
315193,"UTU","small_airport","Ustupu Airport",9.1283,-77.9337,9,"NA","PA","PS-GY","Ustupu","no","MPUP","UTU",,,"https://en.wikipedia.org/wiki/Ustupo_Airport","Ustupo"
31761,"UUBA","medium_airport","Kostroma Sokerkino Airport",57.796902,41.019402,446,"EU","RU","RU-KOS","Kostroma","yes","UUBA","KMW",,"http://www.kmtn.ru/~koao/","https://en.wikipedia.org/wiki/Kostroma_Airport","Аэропорт Кострома Сокеркино"
30762,"UUBB","small_airport","Bykovo Airport",55.616979,38.059995,427,"EU","RU","RU-MOS","Moscow","no","UUBB",,,,"https://en.wikipedia.org/wiki/Bykovo_Airport","BKA, УУББ, Аэропорт Быково"
42934,"UUBC","medium_airport","Grabtsevo Airport",54.5499992371,36.3666687012,656,"EU","RU","RU-KLU","Kaluga","no","UUBC","KLF",,,"https://en.wikipedia.org/wiki/Grabtsevo_Airport","Аэропорт Грабцево"
43669,"UUBD","medium_airport","Dyagilevo Air Base",54.642284,39.569047,440,"EU","RU","RU-RYA","Ryazan","no","UUBD",,,,"https://en.wikipedia.org/wiki/Dyagilevo","Dyaghilevo Air Base, Аэродром Дягилево"
31690,"UUBI","medium_airport","Ivanovo South Airport",56.93939971923828,40.940799713134766,410,"EU","RU","RU-IVA","Ivanovo","yes","UUBI","IWA",,,"https://en.wikipedia.org/wiki/Ivanovo_Yuzhny_Airport","Ivanovo Yuzhniy Airport, Ivanovo Yuzhny Airport, Аэропорт Иваново Южный"
32241,"UUBK","medium_airport","Staroselye Airport",58.104198,38.929401,423,"AS","RU","RU-YAR","Rybinsk","yes","UUBK","RYB",,,"https://en.wikipedia.org/wiki/Staroselye_Airport","Аэропорт Староселье, ЬУБК"
35074,"UUBL","medium_airport","Semyazino Airport",56.127423,40.315202,554,"EU","RU","RU-VLA","Vladimir","no",,,"UUBL","http://www2.vtsnet.ru/vlavia/HTMLs/airdrom_rus.htm","https://en.wikipedia.org/wiki/Semyazino_Airport","Vladimir Airport, Аэропорт Семязино, Аэропорт Владимир, УУБЛ, ЬУБЛ"
42966,"UUBM","medium_airport","Myachkovo Airfield",55.560001,37.985001,410,"AS","RU","RU-MOS","Moscow","no","UUBM",,,"http://www.miachkovo.com/","https://en.wikipedia.org/wiki/Myachkovo_Airport","Аэропорт Мячково"
44648,"UUBN","small_airport","Zmeyevo Airfield",56.915001,35.935001,472,"EU","RU","RU-TVE","Tver","no","UUBN",,,,,"Zmeevo Airport, Zmeyovo Airport, Аэропорт Змеево, Аэропорт Змеёво"
26393,"UUBP","medium_airport","Bryansk Airport",53.214199,34.176399,663,"EU","RU","RU-BRY","Bryansk","yes","UUBP","BZK",,"http://www.airport.bryansk.ru/","https://en.wikipedia.org/wiki/Bryansk_International_Airport","Аэропорт Брянск, УУБП"
335153,"UUBQ","small_airport","Sharya Airport",58.391989,45.554466,120,"EU","RU","RU-KOS",,"yes","UUBQ",,,,,
42967,"UUBW","large_airport","Zhukovsky International Airport",55.553299,38.150002,377,"EU","RU","RU-MOS","Moscow","yes","UUBW","ZIA",,"http://zia.aero/","https://en.wikipedia.org/wiki/Zhukovsky_International_Airport","Аэропорт Раменское, Zhukovsky Air Base, Gromov Flight Research Institute, Лётно-исследовательский институт имени М. М. Громова, ЛИИ"
26394,"UUDD","large_airport","Domodedovo International Airport",55.40879821777344,37.90629959106445,588,"EU","RU","RU-MOS","Moscow","yes","UUDD","DME",,"http://www.domodedovo.ru/en/","https://en.wikipedia.org/wiki/Domodedovo_International_Airport","MOW, Аэропорт Домоде́дово"
26395,"UUDL","small_airport","Tunoshna Airport",57.560699,40.157398,287,"EU","RU","RU-YAR","Tunoshna","no","UUDL","IAR",,,"https://en.wikipedia.org/wiki/Tunoshna",
26396,"UUEE","large_airport","Sheremetyevo International Airport",55.972599,37.4146,622,"EU","RU","RU-MOS","Moscow","yes","UUEE","SVO",,"http://www.svo.aero/en/","https://en.wikipedia.org/wiki/Sheremetyevo_International_Airport","MOW, Международный аэропорт Шереметьево, svo, sheremetyevo, moscow"
42990,"UUEI","small_airport","Kimry Airfield",56.798302,37.330002,449,"EU","RU","RU-TVE","Kimry","no","UUEI",,,"http://www.aero-club.ru/borki.php","https://en.wikipedia.org/wiki/Kimry_Airport","Borki,Kletino,Кимры,Борки,Клетино"
26397,"UUEM","medium_airport","Migalovo Air Base",56.82469940185547,35.7577018737793,469,"EU","RU","RU-TVE","Tver","no","UUEM","KLD",,,"https://en.wikipedia.org/wiki/Migalovo",
325060,"UUMD","small_airport","Selnikovo Airfield",55.129783,39.145733,351,"EU","RU","RU-MOS","Selnikovo","no","UUMD",,,,,"УУМД, Сельниково"
35090,"UUMI","small_airport","Stupino Air Base",54.888,38.147,584,"EU","RU","RU-MOS","Stupino","no","UUMI",,,,"https://en.wikipedia.org/wiki/Stupino_Airfield","Krutyshki Airfield, Аэродром Ступино, Аэродром Крутышки"
44920,"UUML","small_airport","Severka Airfield",55.206608,38.679149,433,"EU","RU","RU-MOS","Voskresensk","no","UUML",,,"http://www.aviaseverka.ru/",,"Аэродром Северка"
34931,"UUMO","medium_airport","Ostafyevo International Airport",55.511667,37.507222,568,"EU","RU","RU-MOS","Moscow","no","UUMO","OSF",,"http://eng.gazpromavia.ru/page20.shtml","https://en.wikipedia.org/wiki/Ostafievo_International_Airport","Ostafievo, Междунаро́дный аэропо́рт «Оста́фьево», Gazprom"
325055,"UUMQ","closed","Gan'kino Airfield",54.8704087,39.3805418999,,"EU","RU","RU-MOS",,"no",,,,,,"UUMQ, UUMQ"
42968,"UUMT","medium_airport","Tretyakovo Airport",54.904999,39.026669,515,"EU","RU","RU-MOS","Lukhovitsy","no","UUMT",,,,"https://en.wikipedia.org/wiki/Tretyakovo_Airport","Lukhovitsy Airport, Аэропорт Третьяково, Аэропорт Луховицы"
34969,"UUMU","medium_airport","Chkalovskiy Air Base",55.8783,38.061699,499,"EU","RU","RU-MOS","Moscow","no","UUMU","CKL",,,"https://en.wikipedia.org/wiki/Chkalovsky_Airport","Chkalovsky Airport, Аэродром Чкаловский"
26398,"UUOB","medium_airport","Belgorod International Airport",50.643798828125,36.5900993347168,735,"EU","RU","RU-BEL","Belgorod","yes","UUOB","EGO",,,"https://en.wikipedia.org/wiki/Belgorod_Airport",
42995,"UUOD","small_airport","Pridacha",51.652271,39.255524,344,"EU","RU","RU-VOR","Voronezh","no","UUOD",,,"http://www.vaso.ru/","https://en.wikipedia.org/wiki/Pridacha_Airport","Аэропорт Придача, Repnoe Airport, Voronezh East Airport"
26399,"UUOK","medium_airport","Kursk East Airport",51.7505989074707,36.29560089111328,686,"EU","RU","RU-KRS","Kursk","yes","UUOK","URS",,,"https://en.wikipedia.org/wiki/Kursk_Vostochny_Airport","Kursk Vostochny Airport"
31846,"UUOL","medium_airport","Lipetsk Airport",52.70280075073242,39.53779983520508,584,"EU","RU","RU-LIP","Lipetsk","yes","UUOL","LPK",,,"https://en.wikipedia.org/wiki/Lipetsk_Airport",
26400,"UUOO","medium_airport","Voronezh International Airport",51.81420135498047,39.22959899902344,514,"EU","RU","RU-VOR","Voronezh","yes","UUOO","VOZ",,,"https://en.wikipedia.org/wiki/Voronezh_International_Airport","Chertovitskoye Airport, Chertovitskoe Airport, Аэропорт Воронеж, Аэропорт Чертовицкое"
342078,"UUOP","small_airport","Tomarovka Aerodrome",50.6945,36.2922,656,"EU","RU","RU-BEL","Pushkarnoye","no",,,"XUOP",,,"Томаровка, ЬУОП"
32091,"UUOR","closed","Oryol Yuzhny Airport",52.9347,36.002201,656,"EU","RU","RU-ORL","Orel","no",,,,,"https://en.wikipedia.org/wiki/Oryol_Yuzhny_Airport","Oryol South Airport, Orel Yuzhny Airport, Orel South Airport, Аэропорт Орёл Южный, Аэропорт Орел Южный, UUOR, OEL"
42922,"UUOS","small_airport","Stary Oskol Airfield",51.329216,37.768848,719,"AS","RU","RU-BEL","Stary Oskol","no","UUOS",,"UUOS",,"https://en.wikipedia.org/wiki/Stary_Oskol_Airport","УУОС, Старый Оскол, Staryy Oskol"
32427,"UUOT","medium_airport","Donskoye Airport",52.806099,41.4828,413,"AS","RU","RU-TAM","Tambov","no","UUOT","TBW",,,"https://en.wikipedia.org/wiki/Tambov_Donskoye_Airport",
517952,"UUPM","heliport","163rd km Oil Pipeline Heliport",65.077713,57.23225,200,"EU","RU","RU-KO","Pechora","no","UUPM",,,,,"УУПМ"
44421,"UURH","heliport","Haryaginskiy Heliport",67.21299743652344,56.78099822998047,,"EU","RU","RU-KO","Haryaginskiy","no","UURH",,,,,"Haryaginsky Heliport, Аэропорт Харьягинский"
336167,"UUTZ","small_airport","Zavidovo Air Park (U.C.)",56.553558,36.559481,1562,"EU","RU","RU-TVE","Shetakovo","no","UUTZ",,,"http://www.zavidovoairpark.com/infrastructure",,
315021,"UUU","small_airport","Manumu Airport",-9.0746,147.5735,1800,"OC","PG","PG-CPM","Manumu","no",,"UUU","MMU",,,
42910,"UUUS","closed","Tushino Airport",55.818333,37.426666,420,"EU","RU","RU-MOW","Moscow","no",,,,,"https://en.wikipedia.org/wiki/Tushino_Airport","UUUS, UUUS"
42933,"UUWE","medium_airport","Yermolino Air Base",55.228333,36.608334,640,"EU","RU","RU-KLU","Balabanovo","no","UUWE",,,,"https://en.wikipedia.org/wiki/Ermolino_Airport","Ermolino Airport, Аэропорт Ермолино"
352883,"UUWK","small_airport","Kudinovo Airfield",55.023839,36.244583,600,"EU","RU","RU-KLU","Kudinovo","no","UUWK",,,"http://www.uuwk.ru/",,"Кудиново"
32242,"UUWR","small_airport","Turlatovo Airport",54.555901,39.855202,502,"EU","RU","RU-RYA","Ryazan","no","UUWR","RZN",,,"https://en.wikipedia.org/wiki/Turlatovo_Airport","Аэропорт Турлатово"
42330,"UUWV","small_airport","Klokovo Airfield",54.239,37.6,499,"EU","RU","RU-TUL","Tula","no",,"TYA","UUBT",,"https://en.wikipedia.org/wiki/Klokovo","Аэродром Клоково"
26401,"UUWW","large_airport","Vnukovo International Airport",55.5914993286,37.2615013123,685,"EU","RU","RU-MOS","Moscow","yes","UUWW","VKO",,"http://www.vnukovo.ru/eng","https://en.wikipedia.org/wiki/Vnukovo_International_Airport","MOW, Международный аэропорт Внуково"
32506,"UUYH","medium_airport","Ukhta Airport",63.566898,53.804699,482,"AS","RU","RU-KO","Ukhta","yes","UUYH","UCT",,,"https://en.wikipedia.org/wiki/Ukhta_Airport",
42946,"UUYI","medium_airport","Inta Airport",66.053372,60.105786,184,"EU","RU","RU-KO","Inta","no","UUYI","INA",,,"https://en.wikipedia.org/wiki/Inta_Airport","Аэропорт Инта"
42950,"UUYK","medium_airport","Vuktyl Airport",63.823299,57.279999,358,"AS","RU","RU-KO","Vuktyl","no","UUYK",,,,"https://en.wikipedia.org/wiki/Vuktyl_Airport","Аэропорт Вуктыл"
43682,"UUYM","small_airport","Yemva Airport",62.6054000854,50.925201416,,"EU","RU","RU-KO","Emva","no","UUYM",,,,,"Emva Airport, Аэропорт Емва"
32154,"UUYP","medium_airport","Pechora Airport",65.121101,57.130798,98,"EU","RU","RU-KO","Pechora","yes","UUYP","PEX",,,"https://en.wikipedia.org/wiki/Pechora_Airport",
32555,"UUYS","medium_airport","Usinsk Airport",66.0047,57.367199,262,"AS","RU","RU-KO","Usinsk","yes","UUYS","USK",,,"https://en.wikipedia.org/wiki/Usinsk_Airport",
44858,"UUYT","small_airport","Ust-Kulom Airport",61.689998626708984,53.709999084472656,,"EU","RU","RU-KO","Ust-Kulom","no","UUYT",,,,,"Аэропорт Усть-Кулом"
42947,"UUYV","medium_airport","Izhma Airport",65.0317,53.970001,230,"AS","RU","RU-KO","Izhma","no","UUYV",,,,"https://en.wikipedia.org/wiki/Izhma_Airport","Аэропорт Ижма"
32581,"UUYW","medium_airport","Vorkuta Airport",67.488602,63.993099,604,"AS","RU","RU-KO","Vorkuta","yes","UUYW","VKT",,,"https://en.wikipedia.org/wiki/Vorkuta_Airport",
42949,"UUYX","medium_airport","Ust-Tsylma Airport",65.437294,52.200336,262,"AS","RU","RU-KO","Ust-Tsylma","no","UUYX","UTS",,,"https://en.wikipedia.org/wiki/Ust-Tsylma_Airport","Ust-Tsilma, Усть-Цильма"
26402,"UUYY","medium_airport","Syktyvkar Airport",61.64699935913086,50.84510040283203,342,"EU","RU","RU-KO","Syktyvkar","yes","UUYY","SCW",,,"https://en.wikipedia.org/wiki/Syktyvkar_Airport",
44901,"UWGB","small_airport","Bolshoye Boldino Airport",55.02000045776367,45.314998626708984,,"EU","RU","RU-ARK","Bolshoye Boldino","no","UWGB",,,,,"Bolshoe Boldino Airport, Аэропорт Большое Болдино"
26403,"UWGG","medium_airport","Nizhny Novgorod Strigino International Airport",56.230098724365,43.784000396729,256,"EU","RU","RU-NIZ","Nizhny Novgorod","yes","UWGG","GOJ",,"http://www.airportnn.ru/en/","https://en.wikipedia.org/wiki/Nizhny_Novgorod_International_Airport","Strigino Airport"
35174,"UWKB","medium_airport","Bugulma Airport",54.641184,52.800229,991,"AS","RU","RU-TA","Bugulma","yes","UWKB","UUA",,,"https://en.wikipedia.org/wiki/Bugulma_Airport","УВКБ, Аэропорт Бугульма"
26404,"UWKD","large_airport","Kazan International Airport",55.606201171875,49.278701782227,411,"EU","RU","RU-TA","Kazan","yes","UWKD","KZN",,"http://www.kazan.aero/en/","https://en.wikipedia.org/wiki/Kazan_International_Airport",
26405,"UWKE","medium_airport","Begishevo Airport",55.564701080322266,52.092498779296875,643,"EU","RU","RU-TA","Nizhnekamsk","yes","UWKE","NBC",,,"https://en.wikipedia.org/wiki/Begishevo_Airport",
34954,"UWKG","medium_airport","Borisoglebskoye Airport",55.866699,49.133301,213,"AS","RU","RU-TA","Kazan","no","UWKG",,,,"https://en.wikipedia.org/wiki/Borisoglebskoye_Airport","Аэропорт Борисоглебское"
42986,"UWKI","closed","Chistopol Airport",55.305798,50.615986,604,"AS","RU","RU-TA","Chistopol","no",,,,,"https://en.wikipedia.org/wiki/Chistopol_Airport","UWKI"
31707,"UWKJ","medium_airport","Yoshkar-Ola Airport",56.700599670410156,47.904701232910156,348,"EU","RU","RU-ME","Yoshkar-Ola","yes","UWKJ","JOK",,,"https://en.wikipedia.org/wiki/Yoshkar-Ola_Airport","Аэропорт Йошкар-Ола"
26406,"UWKS","medium_airport","Cheboksary Airport",56.090301513671875,47.3473014831543,558,"EU","RU","RU-CU","Cheboksary","yes","UWKS","CSY",,,"https://en.wikipedia.org/wiki/Cheboksary_Airport",
43684,"UWKV","medium_airport","Zhigansk Airport",66.7965011597,123.361000061,292,"AS","RU","RU-SA","Zhigansk","yes","UEVV","ZIX",,,"https://en.wikipedia.org/wiki/Zhigansk_Airport","УЕЖЖ, Аэропорт Жиганск"
43881,"UWKW","heliport","Yudino Heliport",55.85900115966797,49.040000915527344,,"EU","RU","RU-TA","Kazan","no","UWKW",,,"http://kazanhelicopters.com/",,"Kazan Helicopter Works, Юдино, Казанский Вертолетный завод"
35104,"UWLL","medium_airport","Ulyanovsk Baratayevka Airport",54.268299,48.2267,449,"EU","RU","RU-ULY","Ulyanovsk","yes","UWLL","ULV",,"http://ulk.aero/","https://en.wikipedia.org/wiki/Ulyanovsk_Baratayevka_Airport",
46256,"UWLS","small_airport","Soldatskaya Tashla Airfield",54.015284,48.306026,673,"AS","RU","RU-ULY",,"no","UWLS",,,,,"Аэродром Солдатская Ташла, УВЛС"
26407,"UWLW","medium_airport","Ulyanovsk East Airport",54.401001,48.8027,252,"EU","RU","RU-ULY","Cherdakly","yes","UWLW","ULY",,,"https://en.wikipedia.org/wiki/Ulyanovsk_Vostochny_Airport","Ulyanovsk Vostochny Airport"
310608,"UWOD","small_airport","Adamovka Airport",51.499284,59.936658,,"AS","RU","RU-ORE","Adamovka","no","UWOD",,,,,
310609,"UWOH","small_airport","Kvarkeno Airport",52.077797,59.686542,,"AS","RU","RU-ORE","Kvarkeno","yes","UWOH",,,,,
26408,"UWOO","medium_airport","Orenburg Central Airport",51.795799255371094,55.45669937133789,387,"EU","RU","RU-ORE","Orenburg","yes","UWOO","REN",,"http://www.airoport.orenair.ru/","https://en.wikipedia.org/wiki/Orenburg_Tsentralny_Airport","Orenburg Tsentralny Airport, Аэропорт Центральный"
26409,"UWOR","medium_airport","Orsk Airport",51.072498,58.5956,909,"AS","RU","RU-ORE","Orsk","yes","UWOR","OSW",,,"https://en.wikipedia.org/wiki/Orsk_Airport",
335161,"UWOS","small_airport","Svetlyy Airport",50.800721,60.902367,978,"AS","RU","RU-ORE",,"yes","UWOS",,,,,
32155,"UWPP","medium_airport","Penza Airport",53.110599517822266,45.02109909057617,614,"EU","RU","RU-PNZ","Penza","yes","UWPP","PEZ",,,"https://en.wikipedia.org/wiki/Penza_Airport","Penza South"
42965,"UWPS","medium_airport","Saransk Airport",54.12512969970703,45.212257385253906,676,"EU","RU","RU-MO","Saransk","yes","UWPS","SKX",,,"https://en.wikipedia.org/wiki/Saransk_Airport","Аэропорт Саранск"
30804,"UWSB","medium_airport","Balakovo Airport",51.858299,47.745602,95,"AS","RU","RU-SAR","Balakovo","yes","UWSB","BWO",,,"https://en.wikipedia.org/wiki/Balakovo_Airport","Malaya Bykovka Airport, Аэропорт Балаково, Аэропорт Малая Быковка"
339001,"UWSG","large_airport","Gagarin International Airport",51.712778,46.171111,103,"EU","RU","RU-SAR","Saratov","yes","UWSG","GSV",,"http://gsv.aero/en/","https://en.wikipedia.org/wiki/Saratov_Gagarin_Airport",
44315,"UWSK","small_airport","Krasny Kut Airport",50.955458,46.949901,177,"EU","RU","RU-SAR","Krasny Kut","no","UWSK",,,"http://www.kluga.ru/",,"Аэропорт Красный Кут"
26410,"UWSS","closed","Saratov Central Airport",51.564999,46.0467,,"AS","RU","RU-SAR",,"no",,,,,"https://en.wikipedia.org/wiki/Saratov_Tsentralny_Airport","Saratov Tsentralny Airport, Аэропорт Центральный, UWSS, RTW"
351649,"UWTK","small_airport","Karaishevo Airfield",55.53869,49.32154,185,"EU","RU","RU-TA","Karaishevo","no","UWTK",,,,,
42920,"UWUA","heliport","Sibay Airport",52.687412,58.714802,1309,"AS","RU","RU-BA","Sibay","no","UWUA",,,,"https://en.wikipedia.org/wiki/Sibay_Airport","УВУА, Сибай"
30690,"UWUB","small_airport","Beloretsk Airport",53.938389,58.340113,1827,"AS","RU","RU-BA","Beloretsk","no","UWUB","BCX",,,,
32019,"UWUF","closed","Neftekamsk Airport",56.106899,54.347198,456,"AS","RU","RU-BA","Neftekamsk","no",,,,,"https://en.wikipedia.org/wiki/Neftekamsk_Airport","УВУФ, Нефтекамск, UWUF, NEF"
32112,"UWUK","small_airport","Oktyabrskiy Airport",54.439999,53.388302,377,"AS","RU","RU-TA","Kzyl-Yar","no","UWUK","OKT",,,"https://en.wikipedia.org/wiki/Oktyabrsky_Airport","Oktyabrsky Airport, Аэропорт Октябрьский"
42921,"UWUM","closed","Maksimovka Airport",54.830002,56.168301,325,"AS","RU","RU-BA","Ufa","no",,,,,"https://en.wikipedia.org/wiki/Ufa_Maximovka_Airport","Maximovka Airport, Аэропорт Максимовка, UWUM"
26411,"UWUU","large_airport","Ufa International Airport",54.557498931885,55.874401092529,449,"EU","RU","RU-BA","Ufa","yes","UWUU","UFA",,"http://www.airportufa.ru/en/","https://en.wikipedia.org/wiki/Ufa_International_Airport","Международный аэропорт Уфа"
315322,"UWUZ","small_airport","Aktanysh Airport",55.6975,54.0677,378,"EU","RU","RU-TA","Aktanysh","no","UWUZ",,"UWUZ",,,"УВУЗ, Актаныш"
43671,"UWWB","medium_airport","Buguruslan Severny Airport",53.718399,52.371899,728,"AS","RU","RU-ORE","Buguruslan","no","UWWB",,,,,"Buguruslan North Airport, Аэропорт Бугуруслан Северный"
46254,"UWWE","small_airport","Verkhneye Sancheleyevo Airfield",53.6960966684,49.491519928,246,"EU","RU","RU-SAM","Tolyatti","no","UWWE",,,"http://www.aviatlt.ru/",,"Verkhnee Sancheleevo Airfield, Аэродром Верхнее Санчелеево, УВВЕ"
44614,"UWWG","medium_airport","Bezymyanka Airfield",53.220001,50.325001,135,"AS","RU","RU-SAM","Samara","no","UWWG",,,"http://www.aviacor.ru/","https://en.wikipedia.org/wiki/Bezymyanka_%28airport%29","Bezimyanka Airfield, Аэродром Безымянка"
44613,"UWWS","small_airport","Smyshlyayevka Airport",53.240002,50.375,131,"AS","RU","RU-SAM","Samara","no","UWWS",,,,,"УВВС, Самара, Smyshlyaevka Airport, Аэропорт Смышляевка"
46255,"UWWT","closed","Tolyatti Airport",53.596638,49.378374,230,"EU","RU","RU-SAM","Tolyatti","no",,,,,,"Аэропорт Тольятти, УВВТ, UWWT"
26412,"UWWW","large_airport","Kurumoch International Airport",53.504901885986,50.16429901123,477,"EU","RU","RU-SAM","Samara","yes","UWWW","KUF",,"http://airport.samara.ru/en/","https://en.wikipedia.org/wiki/Kurumoch_International_Airport",
39084,"UY-0001","small_airport","Villa Independencia Airport",-33.14196,-58.293759,52,"SA","UY","UY-RN","Fray Bentos","no","SUFB",,,,"https://en.wikipedia.org/wiki/Villa_Independencia_Airport","FZB, Fray Bentos Airport"
39085,"UY-0002","small_airport","Rocha Airport",-34.4781,-54.2799,91,"SA","UY","UY-RO","Rocha","no",,,,,,
324370,"UY-0003","closed","Carlos M Fraschini Airport",-32.246237,-58.093017,66,"SA","UY","UY-PA","Paysandu","no",,,,,,
324371,"UY-0004","small_airport","Garcia Brum Airstrip",-32.396295,-56.588257,448,"SA","UY","UY-PA",,"no",,,,,,
324636,"UY-0005","small_airport","Joaquín Lenzina Airport",-31.868851,-55.498746,,"SA","UY","UY-TA","Ansina","no",,,,,,
324637,"UY-0006","small_airport","Ansina Airstrip",-31.869065,-55.491636,,"SA","UY","UY-TA","Ansina","no",,,,,,
325594,"UY-0007","small_airport","La Lata Aeroclub Airport",-30.952597,-55.5353,743,"SA","UY","UY-RV","Rivera","no",,,,,,
325597,"UY-0008","small_airport","Ricardo Raver Airport",-34.312485,-57.041631,92,"SA","UY","UY-SJ","Ecilda Paullier","no",,,,,,
325599,"UY-0009","small_airport","Aeroclub Guichón Airfield",-32.346251,-57.170861,276,"SA","UY","UY-PA","Guichón","no",,,,,,
325603,"UY-0010","small_airport","Saman Lascano Airport",-33.755113,-54.148823,163,"SA","UY","UY-RO","Lascano","no",,,,,,
325604,"UY-0011","small_airport","La Media Luna Airport",-30.4053,-57.2756,255,"SA","UY","UY-AR","Yucutujá","no",,,,,,
325903,"UY-0012","heliport","Carmelo Park Hyatt Heliport",-33.95582,-58.335986,,"SA","UY","UY-CO","Carmelo","no",,,,,,
326528,"UY-0013","small_airport","Florida Aviation Center",-34.08392,-56.186665,188,"SA","UY","UY-FD","Florida","no","SUFL",,,,,
326549,"UY-0014","small_airport","Juan B. Desalvo Airport",-33.485556,-56.890833,423,"SA","UY","UY-FS","Trinidad","no","SUTD",,,,,"Aeroclub de Flores"
348478,"UY-0015","small_airport","La Arcadia Airport",-34.18717,-58.0733,59,"SA","UY","UY-CO","Puerto de Conchillas","no",,,,,,
348479,"UY-0016","small_airport","La Rabida Airport",-34.72139,-56.61134,104,"SA","UY","UY-SJ","Costas del Tigre","no",,,"1001",,,
348480,"UY-0017","small_airport","Kiyú Airport",-34.66828,-56.71273,75,"SA","UY","UY-SJ","Kiyú","no",,,,,,
348481,"UY-0018","small_airport","La Horqueta Airport",-34.56547,-56.72975,144,"SA","UY","UY-SJ","Puntas de Valdez","no",,,,,,
348482,"UY-0019","small_airport","Wings of Freedom Airport",-34.76568,-55.48423,66,"SA","UY","UY-CA","Cuchilla Alta","no",,,,,,
348483,"UY-0020","small_airport","Cumbres de Carrasco Airport",-34.76896,-55.95315,83,"SA","UY","UY-CA","Ciudad de la Costa","no",,,,,,
348484,"UY-0021","small_airport","La Rinconada Airport",-34.66773,-54.30602,66,"SA","UY","UY-RO","La Paloma","no",,,,,,
349347,"UY-0022","small_airport","Nueva Helvecia Airport",-34.244003,-57.205465,135,"SA","UY","UY-CO","Nueva Helvecia","no",,,,,,
513760,"UY-0023","small_airport","Los Alamos Airport",-31.804875,-54.264035,558,"SA","UY","UY-CL","Aceguá","no",,,,,,
517333,"UY-0024","small_airport","OTA Agricultural Airport",-33.217597,-54.330647,184,"SA","UY","UY-TT","Treinta y Tres","no",,,"1109",,,
517338,"UY-0025","heliport","Atchugarry Foundation Heliport",-34.865038,-54.825127,109,"SA","UY","UY-MA","Pueblo Garzon","no",,,"1002",,,
517339,"UY-0026","small_airport","Estancia Don Tomás Airstrip",-31.661925,-54.664019,502,"SA","UY","UY-RV","Paso Hospital","no",,,"1003",,,
517340,"UY-0027","small_airport","Estancia El Monasterio Airstrip",-33.834374,-54.000696,82,"SA","UY","UY-RO","Los Ajos","no",,,"1004",,,
41688,"UZ-0001","closed","Aim Southeast Airport",40.753399,72.752296,2240,"AS","UZ","UZ-AN","Kurgantepa","no",,,,,,
41689,"UZ-0002","closed","Ak Kurgan Airport",40.86287,69.029046,969,"AS","UZ","UZ-TO","Ak Kurgan","no",,,,,,
26418,"UZ-0003","closed","Beleuli North Airport",44.054254,57.54776,413,"AS","UZ","UZ-QR","Jasliq","no",,,,,,"Zhaslyk Airport, Аэропорт Белеули Северный, Аэропорт Жаслык, UT1O"
41691,"UZ-0004","closed","Andizhan Northeast Airport",40.887563,72.406724,1585,"AS","UZ","UZ-AN","Andizhan","no",,,,,,
41692,"UZ-0005","closed","Balykchi Southwest Airport",40.827202,71.767998,1344,"AS","UZ","UZ-AN","Saryksu","no",,,,,,
41693,"UZ-0006","small_airport","Besh Kotan Airport",37.493271,66.978463,1063,"AS","UZ","UZ-SU","Besh Kotan","no",,,,,,
41694,"UZ-0007","closed","Charkhin Airport",39.6665,66.7705,2200,"AS","UZ","UZ-SA","Charkhin","no",,,,,,
41695,"UZ-0008","closed","Chartak Airport",40.949405,69.043633,999,"AS","UZ","UZ-TO","Chartak","no",,,,,,
41696,"UZ-0009","small_airport","Chinaz Highway Airstrip",40.97949981689453,68.79219818115234,923,"AS","UZ","UZ-TO","Chinaz","no",,,,,,
41697,"UZ-0010","closed","Dustlik North Airport",40.549809,68.08371,879,"AS","UZ","UZ-JI","Dustlik","no",,,,,,
41698,"UZ-0011","closed","Dutyr Airport",40.372501,71.370499,1473,"AS","UZ","UZ-FA","Rishtan","no",,,,,,
41699,"UZ-0012","small_airport","Kunkhodzha Airport",43.118801,58.3736,300,"AS","UZ","UZ-QR","Kunkhodzha","no",,,,,,"Dzhangabirlyk West"
41700,"UZ-0013","small_airport","Dzhar-Tepe Airport",39.16740036010742,66.7145004272461,2022,"AS","UZ","UZ-QA","Dzhar-Tepe","no",,,,,,
41701,"UZ-0014","closed","Fergana Southwest Airport",40.309101,71.7145,2327,"AS","UZ","UZ-FA","Fergana","no",,,,,,
41702,"UZ-0015","closed","Galyabita East Airport",38.419701,68.101097,1940,"AS","UZ","UZ-SU","Galyabita","no",,,,,,
41703,"UZ-0016","closed","Guzar Airport",38.634701,66.272797,1679,"AS","UZ","UZ-QA","Guzar","no",,,,,,
41704,"UZ-0017","closed","Atakent Airport",40.874993,68.460041,852,"AS","UZ","UZ-JI","Atakent","no",,,,,,
41705,"UZ-0018","closed","Ilich North Airport",40.939201,68.520203,835,"AS","UZ","UZ-JI","Ilich","no",,,,,,
41706,"UZ-0019","small_airport","Imeni Kirova Airport",40.633514,68.617562,875,"AS","UZ","UZ-SI","Imeni Kirova","no",,,,,,
41707,"UZ-0020","small_airport","Aranchi Airfield",41.026817,69.199536,1132,"AS","UZ","UZ-TO","Aranchi","no",,,,,,"Angren, Kalinovka"
41708,"UZ-0021","small_airport","Kamashi Airport",38.80440139770508,66.52960205078125,1780,"AS","UZ","UZ-QA","Kamashi","no",,,,,,
41709,"UZ-0022","small_airport","Kara Kalpak Airport",40.80339813232422,71.18920135498047,1229,"AS","UZ","UZ-NG","Kara Kalpak","no",,,,,,
41710,"UZ-0023","small_airport","Kayki Airport",41.078374,72.028289,1570,"AS","UZ","UZ-NG","Kayki","no",,,,,,
41711,"UZ-0024","heliport","Dehqonobod Heliport",38.343389,66.447908,,"AS","UZ","UZ-QA","Dehqonobod","no",,,,,,
41712,"UZ-0025","small_airport","Kokand Southeast Airport",40.377905,71.093859,1890,"AS","UZ","UZ-FA","Kokand","no",,,,,,
41713,"UZ-0026","closed","Qo'shrabot Airport",39.766998,64.312103,715,"AS","UZ","UZ-BU","Chor Bakr","no",,,,,,"Kosh Rabat"
41714,"UZ-0027","closed","Kumushkent Airport",39.807999,66.844299,2025,"AS","UZ","UZ-SA","Kumushkent","no",,,,,,
41715,"UZ-0028","small_airport","Kuva Southeast Airport",40.483441,72.280825,1973,"AS","UZ","UZ-AN","Markhamat","no",,,,,,"AG3808, FR38715"
41716,"UZ-0029","small_airport","Kuva West Airport",40.504785,71.902458,1591,"AS","UZ","UZ-FA","Ramadan","no",,,,,,
41717,"UZ-0030","small_airport","Muglan Airport",38.901798248291016,65.39669799804688,1050,"AS","UZ","UZ-QA","Muglan","no",,,,,,
41718,"UZ-0031","small_airport","Muruntau Southeast Airport",41.47116470336914,64.66607666015625,1340,"AS","UZ","UZ-NW","Muruntau","no",,,,,,
41719,"UZ-0032","small_airport","Namangan Northeast Airport",41.044891,71.786989,1591,"AS","UZ","UZ-NG","Namangan","no",,,,,,
41720,"UZ-0033","small_airport","Naubag Airport",37.65290069580078,66.97380065917969,1264,"AS","UZ","UZ-SU","Akkurgan","no",,,,,,
41721,"UZ-0034","small_airport","Nishan Airport",38.58919906616211,65.60970306396484,1165,"AS","UZ","UZ-QA","Nishan","no",,,,,,
41722,"UZ-0035","small_airport","Nukus South Airport",42.36360168457031,59.516998291015625,240,"AS","UZ","UZ-QR","Nukus","no",,,,,,
41723,"UZ-0036","closed","Obi Kiik Airport",38.249298,67.721703,2213,"AS","UZ","UZ-SU","Khodzhi Sagat","no",,,,,,
41724,"UZ-0037","small_airport","Ostrov Vozrozhdeniya Airport",45.159148,59.301882,232,"AS","UZ","UZ-QR","Kantubek","no",,,,,,
41725,"UZ-0038","closed","Ostrov Vozrozhdeniya Southwest Airport",45.090401,59.222099,194,"AS","UZ","UZ-QR","Kantubek","no",,,,,,
41726,"UZ-0039","closed","Pap Airport",40.888599,71.091301,1516,"AS","UZ","UZ-NG","Khalkabad","no",,,,,,
41727,"UZ-0040","closed","Payark Airport",39.937801361083984,66.8666000366211,1990,"AS","UZ","UZ-SA","Payark","no",,,,,,
41728,"UZ-0041","closed","Saybui Airport",40.636002,71.700699,1391,"AS","UZ","UZ-FA","Saybui","no",,,,,,"Soybuyi"
41729,"UZ-0042","small_airport","Shirabad Northeast Airport",37.690399169921875,67.05039978027344,1313,"AS","UZ","UZ-SU","Shirabad","no",,,,,,
41730,"UZ-0043","small_airport","Shur Ob East Airport",37.39509963989258,67.03990173339844,936,"AS","UZ","UZ-SU","Shur Ob","no",,,,,,
41731,"UZ-0044","closed","Shurchi North Airport",38.030998,67.792198,1483,"AS","UZ","UZ-SU","Shurchi","no",,,,,,
41732,"UZ-0045","closed","Soldatskiy Southeast Airport",40.789132,68.977414,960,"AS","UZ","UZ-TO","Soldatskiy","no",,,,,,
41733,"UZ-0046","small_airport","Statsiya Yakkabag Airport",38.975366,66.726805,1970,"AS","UZ","UZ-QA","Yakkabag","no",,,,,,
41734,"UZ-0047","small_airport","Syrdarya Airport",40.809101,68.687698,858,"AS","UZ","UZ-SI","Syrdarya","no",,,,,,
41735,"UZ-0048","small_airport","Syrdarya Highway Southwest Airstrip",40.772499,68.563599,864,"AS","UZ","UZ-JI","Syrdaya","no",,,,,,
41736,"UZ-0049","closed","Tallimarjon Airport",38.317592,65.565767,1257,"AS","UZ","UZ-QA","Tallimarjon","no",,,,,,
41737,"UZ-0050","closed","Tardzhilga Airport",39.248299,66.266098,1616,"AS","UZ","UZ-QA","Tardzhilga","no",,,,,,
41738,"UZ-0051","small_airport","Tashkent Angor Airport",37.464258,67.078743,1041,"AS","UZ","UZ-SU","Tashkent","no",,,,,,
41739,"UZ-0052","closed","Termez East Airport",37.2808,67.365501,1024,"AS","UZ","UZ-SU","Termez","no",,,,,,
41740,"UZ-0053","closed","Toytepa Airport",41.0755,69.345123,1265,"AS","UZ","UZ-TO","Nurafshon","no",,,,,,
41741,"UZ-0054","small_airport","Uchkurgan Southeast Airport",41.046854,72.116494,1562,"AS","UZ","UZ-NG","Uchkurgan","no",,,,,,
41742,"UZ-0055","closed","Udurgi Airport",39.726809,64.390273,718,"AS","UZ","UZ-BU","Udurgi","no",,,,,,
41743,"UZ-0056","small_airport","Uychi Southeast Airport",41.00979995727539,71.94869995117188,1440,"AS","UZ","UZ-NG","Uychi","no",,,,,,
41744,"UZ-0057","closed","Yangi-Kent Airport",38.688099,66.0868,1510,"AS","UZ","UZ-QA","Yangi-Kent","no",,,,,,
41745,"UZ-0058","closed","Yaypan Northeast Airport",40.383145,70.926544,1790,"AS","UZ","UZ-FA","Yaypan","no",,,,,,"Яыпан, Yaydan"
41746,"UZ-0059","closed","Zar Chob Airport",38.515999,67.846603,2530,"AS","UZ","UZ-SU","Zar Chob","no",,,,,,
41747,"UZ-0060","small_airport","Alhi Airport",40.93299,69.13819,1091,"AS","UZ","UZ-TO","Alhi","no",,,,,,
41748,"UZ-0061","small_airport","Aradzhi Airport",41.50798416137695,60.42179870605469,311,"AS","UZ","UZ-XO","Aradzhi","no",,,,,,
41749,"UZ-0062","closed","Aravan Northeast Airport",40.580502,72.3536,1857,"AS","UZ","UZ-AN","Shorkishlak","no",,,,,,
41750,"UZ-0063","closed","Bakht Southeast Airport",40.706402,68.688797,864,"AS","UZ","UZ-SI","Bakht","no",,,,,,
41751,"UZ-0064","closed","Bayaut Pervyy West Airport",40.425999,68.967102,936,"AS","UZ","UZ-SI","Bayaut Pervyy","no",,,,,,
41752,"UZ-0065","small_airport","Beruni Airport",41.68532180786133,60.71579360961914,318,"AS","UZ","UZ-QR","Beruni","no",,,,,,
41753,"UZ-0066","small_airport","Chambel Airport",40.023572,67.143373,2198,"AS","UZ","UZ-JI","Khatcha","no",,,,,,
41754,"UZ-0067","closed","Chim Airport",38.8302,66.262497,1480,"AS","UZ","UZ-QA","Chim","no",,,,,,
41755,"UZ-0068","closed","Chimkurgan Airport",40.3797,67.664101,925,"AS","UZ","UZ-JI","Chimkurgan","no",,,,,,
41756,"UZ-0069","closed","Chimkurgan Northwest Airport",40.4104,67.784203,890,"AS","UZ","UZ-JI","Chimkurgan","no",,,,,,
41757,"UZ-0070","closed","Daul Airport",39.743599,66.7239,2082,"AS","UZ","UZ-SA","Daul","no",,,,,,
41758,"UZ-0071","closed","Denau Airport",38.248901,67.927803,1637,"AS","UZ","UZ-SU","Denau","no",,,,,,
41759,"UZ-0072","closed","Denau Southwest Airport",38.205843,67.878004,1690,"AS","UZ","UZ-SU","Denau","no",,,,,,
41760,"UZ-0073","closed","Dimitrovskoye Airport",40.297217,69.04903,997,"AS","UZ","UZ-SI","Dimitrovskoye","no",,,,,,
41761,"UZ-0074","closed","Dustlik East Airport",40.468533,68.13723,900,"AS","UZ","UZ-JI","Dustlik","no",,,,,,
41762,"UZ-0075","closed","Dustlik Northeast Airport",40.477516,68.088692,900,"AS","UZ","UZ-JI","Dustlik","no",,,,,,
41763,"UZ-0076","closed","Dustlik Southeast Airport",40.391499,68.033203,941,"AS","UZ","UZ-JI","Dustlik","no",,,,,,
41764,"UZ-0077","small_airport","Dzharkurgan East Airport",37.50899887084961,67.47229766845703,1138,"AS","UZ","UZ-SU","Dzharkurgan","no",,,,,,
41765,"UZ-0078","closed","Faizabad Airport",38.744911,65.780071,1238,"AS","UZ","UZ-QA","Faizabad","no",,,,,,
41766,"UZ-0079","small_airport","Gilyambor Airport",37.40700149536133,67.18370056152344,1024,"AS","UZ","UZ-SU","Gilyambor","no",,,,,,
41767,"UZ-0080","closed","Golodnaya Step Southeast Airport",40.415798,68.414902,916,"AS","UZ","UZ-SI","Golodnaya","no",,,,,,
41768,"UZ-0081","small_airport","Gulistan North Airport",40.51276,68.798999,893,"AS","UZ","UZ-SI","Gulistan","no",,,,,,
41769,"UZ-0082","closed","Imeni Chkalova Airport",40.553902,68.9216,898,"AS","UZ","UZ-SI","Imeni Chkalova","no",,,,,,
41770,"UZ-0083","closed","Irdzharskaya Northwest Airport",40.737,67.961998,830,"AS","UZ","UZ-JI","Irdzharskaya","no",,,,,,
41771,"UZ-0084","closed","Irdzharskaya West Airport",40.679401,67.998398,846,"AS","UZ","UZ-JI","Irdzharskaya","no",,,,,,
41772,"UZ-0085","closed","Isat Airport",38.948502,66.5466,1742,"AS","UZ","UZ-QA","Isat","no",,,,,,
41773,"UZ-0086","closed","Isbaskent Airport",41.009102,72.412102,1821,"AS","UZ","UZ-AN","Kochkor-ata","no",,,,,,
41774,"UZ-0087","closed","Ishbulak North Airport",39.102901,66.616096,1840,"AS","UZ","UZ-QA","Nushkent","no",,,,,,
41775,"UZ-0088","closed","Kairma Airport",39.741823,66.574575,2004,"AS","UZ","UZ-SA","Mevali","no",,,,,,
41776,"UZ-0089","closed","Karakoy Southeast Airport",40.771599,68.193298,860,"AS","UZ","UZ-JI","Karakoy","no",,,,,,
41777,"UZ-0090","closed","Karadarya East Airport",40.014198,66.292198,1563,"AS","UZ","UZ-SA","Karadarya","no",,,,,,
41778,"UZ-0091","closed","Karakoy Airport",40.9072,68.210999,859,"AS","UZ","UZ-JI","Karakoy","no",,,,,,
41779,"UZ-0092","closed","Karakoy Southwest Airport",40.816101,68.1604,843,"AS","UZ","UZ-JI","Karakoy","no",,,,,,
41780,"UZ-0093","closed","Qorako'l Airport",39.5131,63.8592,658,"AS","UZ","UZ-BU","Qorako'l","no",,,,,,"Karakul"
41781,"UZ-0094","closed","Karshi East Airport",38.867298,65.841499,1258,"AS","UZ","UZ-QA","Karshi","no",,,,,,
41782,"UZ-0095","small_airport","Karyz Airport",39.01860046386719,66.5188980102539,1674,"AS","UZ","UZ-QA","Ayman","no",,,,,,
41783,"UZ-0096","small_airport","Kasan Southwest Airport",39.02119827270508,65.53369903564453,1113,"AS","UZ","UZ-QA","Kasan","no",,,,,,
41784,"UZ-0097","closed","Kattakurgan East Airport",39.909,66.305397,1730,"AS","UZ","UZ-SA","Kattakurgan","no",,,,,,
41785,"UZ-0098","closed","Kattaming Airport",39.940601,66.094704,1454,"AS","UZ","UZ-SA","Kattaming","no",,,,,,
41786,"UZ-0099","closed","Kazakly Baudark Airport",38.985699,65.823097,1283,"AS","UZ","UZ-QA","Kazakly Baudark","no",,,,,,
41787,"UZ-0100","closed","Khatyrchi Northwest Airport",40.053001,65.932404,1372,"AS","UZ","UZ-SA","Khatyrchi","no",,,,,,
41788,"UZ-0101","small_airport","Khavast Airport",40.199849,68.853511,1230,"AS","UZ","UZ-SI","Kahvast","no",,,,,,
41789,"UZ-0102","closed","Kilab Northwest Airport",39.160702,66.854599,2135,"AS","UZ","UZ-QA","Kilab","no",,,,,,
41790,"UZ-0103","closed","Kilab Southeast Airport",39.093096,66.916695,2227,"AS","UZ","UZ-QA","Kilab","no",,,,,,
41791,"UZ-0104","closed","Kishiseit East Airport",40.5611,67.829597,840,"AS","UZ","UZ-JI","Kishiseit","no",,,,,,
41792,"UZ-0105","closed","Kishiseit Northeast Airport",40.581902,67.793098,840,"AS","UZ","UZ-JI","Kishiseit","no",,,,,,
41793,"UZ-0106","closed","Kodzhar Southwest Airport",38.806198,65.569702,1127,"AS","UZ","UZ-QA","Chodshar","no",,,,,,
41795,"UZ-0107","closed","Kokand North Airport",40.659401,70.859398,1224,"AS","UZ","UZ-FA","Kokand","no",,,,,,
41796,"UZ-0108","closed","Kolodets Sari Bel West Airport",40.3088,67.8507,991,"AS","UZ","UZ-JI","Kolodets Sari","no",,,,,,
41797,"UZ-0109","closed","Kukaral Sedmoy Airport",40.652401,69.197197,1039,"AS","UZ","UZ-TO","Kukaral","no",,,,,,
41798,"UZ-0110","closed","Quvvacha Airport",39.498299,63.711498,630,"AS","UZ","UZ-BU","Quvvacha","no",,,,,,"Kuvacha"
41799,"UZ-0111","closed","Kuvasay North Airport",40.379501,71.976097,2196,"AS","UZ","UZ-FA","Ualik","no",,,,,,
41800,"UZ-0112","small_airport","Malekskaya Airport",40.709064,68.581698,865,"AS","UZ","UZ-SI","Malekskaya","no",,,,,,
41801,"UZ-0113","closed","Margelan Airport",40.441502,71.6745,1593,"AS","UZ","UZ-FA","Margelan","no",,,,,,
41802,"UZ-0114","closed","Matlha Airport",40.377899,69.183098,930,"AS","UZ","UZ-TO","Parchayuz","no",,,,,,
41803,"UZ-0115","closed","Mitan Airport",39.980301,66.560303,1711,"AS","UZ","UZ-SA","Kara Darya","no",,,,,,
41804,"UZ-0116","small_airport","Nadezhdinskoye Airport",40.62350082397461,68.93990325927734,886,"AS","UZ","UZ-SI","Obetovanni","no",,,,,,
41805,"UZ-0117","closed","Namangan Southwest Airport",40.945801,71.515099,1544,"AS","UZ","UZ-NG","Namangan","no",,,,,,
41806,"UZ-0118","closed","Naukent Airport",40.2369,71.729698,2617,"AS","UZ","UZ-FA","Naukent","no",,,,,,
41807,"UZ-0119","small_airport","Pap East Airport",40.88519,71.181217,1410,"AS","UZ","UZ-NG","Khalkabad","no",,,,,,
41808,"UZ-0120","closed","Put'k Sotsialismu Airport",40.692299,68.3237,861,"AS","UZ","UZ-JI","Put'k Sotsialismu","no",,,,,,
41809,"UZ-0121","closed","Shabskiy North Airport",40.249729,68.982325,1089,"AS","UZ","UZ-SI","Shabskiy","no",,,,,,
41810,"UZ-0122","closed","Shakhrikhan South Airport",40.622501,72.025497,1481,"AS","UZ","UZ-AN","Shakhrikhan","no",,,,,,
41811,"UZ-0123","closed","Shakhrikhan West Airport",40.702801,71.901199,1398,"AS","UZ","UZ-AN","Shakhrikhan","no",,,,,,
41813,"UZ-0124","small_airport","Shahrisabz Southwest Airport",39.030067,66.775825,1940,"AS","UZ","UZ-QA","Shahrisabz","no",,"RBZ",,,,
41814,"UZ-0125","closed","Shamaldy Say Southeast Airport",41.144699,72.186897,1720,"AS","UZ","UZ-AN","Shamaldy Say","no",,,,,,
41815,"UZ-0126","small_airport","Shamenay Airport",42.63859939575195,58.917198181152344,218,"AS","UZ","UZ-QR","Shamenay","no",,,,,,
41816,"UZ-0127","closed","Shurchi West Airport",37.9132,67.753502,1477,"AS","UZ","UZ-SU","Shurchi","no",,,,,,
41817,"UZ-0128","closed","Siyazy/Pa Yan Airport",39.8242,64.595001,751,"AS","UZ","UZ-NW","Char-Khana","no",,,,,,
41818,"UZ-0129","closed","Srentenka Airport",40.302556,69.153363,930,"AS","UZ","UZ-TO","Srentenka","no",,,,,,
41819,"UZ-0130","small_airport","Surkhany Airport",37.73059844970703,67.5770034790039,1305,"AS","UZ","UZ-SU","Surkhany","no",,,,,,
41820,"UZ-0131","closed","Syrdar Northwest Airport",40.9408,68.622101,839,"AS","UZ","UZ-SI","Syrdarya","no",,,,,,
41822,"UZ-0132","closed","Tmeni Telmana Airport",40.7318,68.222,865,"AS","UZ","UZ-JI","Gagarin","no",,,,,,
41823,"UZ-0133","closed","Ulmas Airport",38.886398,66.362,1560,"AS","UZ","UZ-QA","Karabag","no",,,,,,
41824,"UZ-0134","closed","Uzunkuduk Airport",40.576336,67.139565,942,"AS","UZ","UZ-JI","Uzunkuduk","no",,,,,,
41825,"UZ-0135","closed","Yakkatu Airport",40.4022,70.5276,1330,"AS","UZ","UZ-FA","Yakkatu","no",,,,,,"Yakkatut"
41826,"UZ-0136","small_airport","Yangi Aryn Airport",41.3560905456543,60.599308013916016,311,"AS","UZ","UZ-XO","Yangi Aryn","no",,,,,,
41827,"UZ-0137","closed","Yangi Kurgan Airport",40.5564,71.207001,1309,"AS","UZ","UZ-FA","Karym Baba","no",,,,,,
41828,"UZ-0138","closed","Yangi Yul Airport",41.135601,69.0569,1217,"AS","UZ","UZ-TO","Yangi Yul","no",,,,,,
41829,"UZ-0139","closed","Yangiabad East Airport",40.283298,68.396004,1004,"AS","UZ","UZ-SI","Yangiabad","no",,,,,,
41830,"UZ-0140","closed","Yangiabad Northwest Airport",40.262501,68.309502,1008,"AS","UZ","UZ-SI","Yangiabad","no",,,,,,
41831,"UZ-0141","closed","Yangikishiak Airport",40.42621,67.193032,1830,"AS","UZ","UZ-JI","Yangikishiak","no",,,,,,
41832,"UZ-0142","closed","Yangikurgan / Akdaya Airport",39.922901,66.654297,1800,"AS","UZ","UZ-SA","Yangikurgan","no",,,,,,
41833,"UZ-0143","small_airport","Yangiturmysh Airport",40.71609878540039,69.08039855957031,980,"AS","UZ","UZ-TO","Yangiturmish","no",,,,,,
41834,"UZ-0144","closed","Yerzhar Southwest Airport",40.623699,68.090599,867,"AS","UZ","UZ-JI","Yerzhar","no",,,,,,
41835,"UZ-0145","closed","Zolotaya Orda Airport",40.577999,68.699402,865,"AS","UZ","UZ-SI","Zolotaya","no",,,,,,
44863,"UZ-0146","closed","Tashkent Sergeli Airport",41.199796,69.239141,,"AS","UZ","UZ-TO","Toshkent","no",,,,,,"Toshkent Sergeli Airport"
319901,"UZ-0147","small_airport","Tomar Ozek Airport",43.615,59.267,185,"AS","UZ","UZ-QR","Potlatau","no",,,,,,
329015,"UZ-0148","closed","Komsomolsk-na-Ustyurte Airport",44.024526,58.2515106,524,"AS","UZ","UZ-QR","Komsomolsk-na-Ustyurte","no",,,,,,
337752,"UZ-0149","closed","Oktyabrskoye Airstrip",40.187119,67.844567,1160,"AS","UZ","UZ-JI","Jizzax","no",,,,,,"Dzhizak, Jizzakh, Жиззах, جىززﻩخ"
351309,"UZ-0150","heliport","Tahtakupir Heliport",43.03831,60.25968,190,"AS","UZ","UZ-QR","Tahtakupir","no",,,,,,
351310,"UZ-0151","heliport","Maidanak Training Base Heliport",38.68432,66.94912,8904,"AS","UZ","UZ-QA","Chit","no",,,,,,
355317,"UZ-0152","closed","Eski-Jomboy Airport",39.66816,67.159314,,"AS","UZ","UZ-SA","Dzhambay","no",,,,,,
429865,"UZ-0153","small_airport","Suh airport",39.987179,71.124615,,"AS","UZ","UZ-FA",,"no",,,,,,
26427,"UZ-UT73","small_airport","Maymanak Airport",39.137798,65.165298,1047,"AS","UZ","UZ-QA","Maynanak","no",,,"UT73",,,
26429,"UZ-UT77","small_airport","Kungirot Airport",43.082662,58.885077,180,"AS","UZ","UZ-QR","Kungirot","no",,,"UT77",,,"Kungrad"
313332,"UZM","small_airport","Hope Bay Aerodrome",68.156,-106.618,150,"NA","CA","CA-NU","Hope Bay","no",,"UZM","CHB3",,"https://en.wikipedia.org/wiki/Hope_Bay_Aerodrome",
313684,"UZR","small_airport","Urzhar Airport",47.09115,81.66521,,"AS","KZ","KZ-ABA","Urzhar","yes","UASU","UZR",,,,"Urdzhar, Үржар, Урджар"
44551,"VA-0001","heliport","Eliporto Internazionale della Città del Vaticano",41.902,12.4465,221,"EU","VA","VA-U-A",,"no",,,,,"https://en.wikipedia.org/wiki/Vatican_City_Heliport",
25333,"VA00","small_airport","Brook Hill Farm Airport",37.928199768066406,-79.1781005859375,1600,"NA","US","US-VA","Steeles Tavern","no","VA00",,"VA00",,,
25334,"VA01","closed","Marty 1 Heliport",36.940102,-82.481499,2000,"NA","US","US-VA","Coeburn","no",,,,,,"VA01"
25335,"VA02","small_airport","Pace Airport",36.58521,-79.8772,800,"NA","US","US-VA","Ridgeway","no","VA02",,"VA02",,,
25336,"VA03","heliport","Hospital Heliport",37.35240173339844,-79.5167007446289,800,"NA","US","US-VA","Bedford","no","VA03",,"VA03",,,
25337,"VA04","small_airport","Barrows Airport",37.49209976196289,-79.92870330810547,1100,"NA","US","US-VA","Fincastle","no","VA04",,"VA04",,,
25338,"VA05","closed","Clinchfield Heliport",36.905701,-82.063499,2050,"NA","US","US-VA","Lebanon","no",,,,,,"VA05"
25339,"VA06","small_airport","Deer Run Airport",36.994300842285156,-80.45449829101562,2400,"NA","US","US-VA","Floyd","no","VA06",,"VA06",,,
25340,"VA07","small_airport","Burkes Garden Airport",37.096025,-81.369359,3060,"NA","US","US-VA","Tazewell","no","VA07",,"VA07",,,"MBC Ranch"
25341,"VA08","small_airport","Longbranch Airport",37.717098236083984,-76.35880279541016,20,"NA","US","US-VA","Kilmarnock","no","VA08",,"VA08",,,
25342,"VA09","heliport","Wise A.R.Hospital Heliport",36.9718017578125,-82.58489990234375,2600,"NA","US","US-VA","Wise","no","VA09",,"VA09",,,
25343,"VA10","small_airport","Catawba Valley Airport",37.28010177612305,-80.30139923095703,1720,"NA","US","US-VA","Blacksburg","no","VA10",,"VA10",,,
25344,"VA11","small_airport","White Oak Stand Airport",36.807899475097656,-81.70120239257812,2100,"NA","US","US-VA","Chilhowie","no","VA11",,"VA11",,,
25345,"VA12","small_airport","Gravely Airport",36.64680099487305,-79.7969970703125,750,"NA","US","US-VA","Martinsville","no","VA12",,"VA12",,,
25346,"VA13","small_airport","Breezy Knoll Airport",37.26539993286133,-79.04280090332031,785,"NA","US","US-VA","Rustburg","no","VA13",,"VA13",,,
25347,"VA14","closed","Southampton Correctional Center Airport",36.740389,-77.262962,50,"NA","US","US-VA","Capron","no",,,,,,"VA14"
25348,"VA15","closed","Stokes Airport",37.65622,-78.045566,295,"NA","US","US-VA","Cartersville","no",,,,,,"VA15"
25349,"VA16","closed","Centreville Airport",38.879299,-77.484398,300,"NA","US","US-VA","Centreville","no",,,,,,"VA16"
25350,"VA17","small_airport","Mulberry Run Airport",39.0359,-78.392197,820,"NA","US","US-VA","Strasburg","no","VA17",,"VA17",,,
25351,"VA18","closed","Bundoran Airport",37.968121,-78.681765,840,"NA","US","US-VA","North Garden","no",,,,,,"VA18"
25352,"VA19","small_airport","Snow Hill Airport",37.95399856567383,-78.36920166015625,268,"NA","US","US-VA","Charlottesville","no","VA19",,"VA19",,,
3283,"VA1B","small_airport","Chanda Airport",19.994699478149414,79.22250366210938,625,"AS","IN","IN-MM",,"no","VA1B",,"VA1B",,,
3284,"VA1C","small_airport","Birlagram Airport",23.4468994140625,75.42030334472656,1541,"AS","IN","IN-MP",,"no","VA1C",,"VA1C",,,
3285,"VA1D","small_airport","Muirpur Airport",24.125200271606445,83.04060363769531,1122,"AS","IN","IN-UP",,"no","VA1D",,"VA1D",,,
3286,"VA1E","small_airport","Bhilai Airport",21.294200897216797,81.37950134277344,1014,"AS","IN","IN-CT",,"no","VA1E",,"VA1E",,,
3287,"VA1F","small_airport","Sidhi Airport",24.402299880981445,81.8147964477539,1093,"AS","IN","IN-MP",,"no","VA1F",,"VA1F",,,
3288,"VA1G","medium_airport","Rewa Airport, Chorhata, REWA",24.503401,81.220299,1000,"AS","IN","IN-MP","Rewa","yes","VA1G","REW","VA1G",,"https://en.wikipedia.org/wiki/Rewa_Airport",
3289,"VA1H","small_airport","Ondwa Airport",25.14150047302246,74.61150360107422,1450,"AS","IN","IN-RJ",,"no","VA1H",,"VA1H",,,
3290,"VA1J","small_airport","Dhana Airport",23.753599166870117,78.85579681396484,1706,"AS","IN","IN-MP",,"no","VA1J",,"VA1J",,,
3291,"VA1K","small_airport","Naliya Air Force Station",23.2223,68.891296,135,"AS","IN","IN-GJ","Naliya","no","VANY",,,,,"Raedhanpur Airport, VA1K"
3292,"VA1L","small_airport","Amla Airport",21.926399,78.113602,2435,"AS","IN","IN-MP","Amla","no","VA1L",,"VA1L",,,
3293,"VA1M","small_airport","Karad Airport",17.285900115966797,74.15809631347656,1890,"AS","IN","IN-MM",,"no","VA1M",,"VA1M",,,
3294,"VA1N","small_airport","Nimach Airport",24.43079948425293,74.8677978515625,1617,"AS","IN","IN-MP",,"no","VA1N",,"VA1N",,,
3295,"VA1O","small_airport","Burhar Airport",23.235200881958008,81.50370025634766,1500,"AS","IN","IN-MP",,"no","VA1O",,"VA1O",,,
3296,"VA1P","small_airport","Diu Airport",20.714185,70.921855,31,"AS","IN","IN-DH","Diu","yes","VADU","DIU","VADU","http://aai.aero/allAirports/diu_airpo_gi.jsp","https://en.wikipedia.org/wiki/Diu_Airport","VA1P"
25353,"VA20","closed","SRMC Heliport",37.216801,-77.397797,126,"NA","US","US-VA","Petersburg","no",,,,,,"VA20"
25354,"VA21","heliport","Morven Farms Heliport",37.940101623535156,-78.50859832763672,615,"NA","US","US-VA","Charlottesville","no","VA21",,"VA21",,,
25355,"VA22","closed","Big River Ranch Airport",36.675097,-78.695,375,"NA","US","US-VA","Clarksville","no",,,,,,"VA22"
25356,"VA23","small_airport","Sanford Field",38.119714,-76.613674,15,"NA","US","US-VA","Hague","no","VA23",,"VA23",,,
25357,"VA24","small_airport","Skovhus Airport",37.41429901123047,-78.96420288085938,712,"NA","US","US-VA","Concord","no","VA24",,"VA24",,,
25358,"VA25","small_airport","Twin Towers Airport",36.76430130004883,-78.3604965209961,470,"NA","US","US-VA","Chase City","no","VA25",,"VA25",,,
25359,"VA26","closed","Trent Farm Airstrip",36.654046,-80.114687,1130,"NA","US","US-VA","Critz","no",,,,,,"VA26, VA26"
25360,"VA27","small_airport","Moorefield's Airstrip",36.559898376464844,-80.13780212402344,1110,"NA","US","US-VA","Critz","no","VA27",,"VA27",,,
25361,"VA28","small_airport","Layne Farm Airstrip",37.121299743652344,-78.64360046386719,560,"NA","US","US-VA","Cullen","no","VA28",,"VA28",,,
25362,"VA29","heliport","Novant Health UVA Culpeper Medical Center Heliport",38.454606,-78.01435,475,"NA","US","US-VA","Culpeper","no","VA29",,"VA29",,,"Culpeper Memorial Hospital"
3297,"VA2A","small_airport","Phalodi Airport",27.112899780273438,72.38899993896484,781,"AS","IN","IN-RJ",,"no","VA2A",,"VA2A",,,
3298,"VA2B","small_airport","Dr. Bhimrao Ambedkar Airstrip",28.904933,77.677524,732,"AS","IN","IN-UP","Meerut","no","VA2B",,"VA2B",,,
3299,"VA2C","medium_airport","Gondia Airport",21.526817,80.290347,987,"AS","IN","IN-MM","Gondia","yes","VAGD","GDB","VA2C",,"https://en.wikipedia.org/wiki/Gondia_Airport","Birsi"
3300,"VA2D","small_airport","Ratlam Airport",23.381399154663086,75.02559661865234,1702,"AS","IN","IN-MP",,"no","VA2D",,"VA2D",,,
25363,"VA30","small_airport","Berryvale Airport",38.526798248291016,-77.9563980102539,470,"NA","US","US-VA","Culpeper","no","VA30",,"VA30",,,
25364,"VA31","small_airport","Apple Grove Airport",37.76259994506836,-76.34629821777344,15,"NA","US","US-VA","Kilmarnock","no","VA31",,"VA31",,,
25365,"VA32","small_airport","Longs Airport",38.804298400878906,-78.5719985961914,870,"NA","US","US-VA","Edinburg","no","VA32",,"VA32",,,
25366,"VA33","closed","Beaver Dam Airpark",37.0443,-76.768204,100,"NA","US","US-VA","Surry","no",,,,,,"VA33"
25367,"VA34","small_airport","Big Buffalo Airstrip",37.288219,-78.453404,510,"NA","US","US-VA","Farmville","no","VA34",,"VA34",,,
25368,"VA35","heliport","Fort Lee Nr 1 /Hqs/ Heliport",37.241798400899995,-77.3430023193,100,"NA","US","US-VA","Fort Lee","no","VA35",,"VA35",,,
25369,"VA36","closed","F. U. M. A. Airport",37.744598,-78.270302,400,"NA","US","US-VA","Fork Union","no",,,,,,"VA36"
25370,"VA37","closed","Heth Army Heliport",38.150101,-77.366402,220,"NA","US","US-VA","Fort A. P. Hill","no",,,,,,"VA37"
25372,"VA39","heliport","Fort Lee AHP 3(Qrtmst Cen) Heliport",37.25019836,-77.33300018,100,"NA","US","US-VA","Fort Lee","no","VA39",,"VA39",,,
45880,"VA40","heliport","Virginia International Raceway Heliport",36.565541,-79.206797,385,"NA","US","US-VA","Danville","no","VA40",,"VA40",,,"O'Gara Tech Training Facility"
25373,"VA41","small_airport","High Hopes Airport",37.934600830078125,-75.60990142822266,9,"NA","US","US-VA","Withams","no","VA41",,"VA41",,,
25374,"VA42","small_airport","Dogwood Airpark",38.358972,-77.452744,180,"NA","US","US-VA","Fredericksburg","no","VA42",,"VA42",,,
25375,"VA43","closed","Balcony Downs Airstrip",37.646658,-79.42517,820,"NA","US","US-VA","Buena Vista","no",,,,,,"VA43, Glascow"
25376,"VA44","small_airport","Rose Retreat Farm Airport",37.716800689697266,-77.88390350341797,250,"NA","US","US-VA","Goochland","no","VA44",,"VA44",,,
25377,"VA45","closed","Lous Airport",38.12821,-78.163519,480,"NA","US","US-VA","Gordonsville","no",,,,,,"VA45"
25378,"VA46","small_airport","Timber Ridge Airpark",39.2962,-78.362198,1024,"NA","US","US-VA","Gore","no","VA46",,"VA46",,,
25380,"VA48","seaplane_base","Lockerman Seaplane Base",37.03820037841797,-79.59609985351562,795,"NA","US","US-VA","Gretna","no","VA48",,"VA48",,,
25381,"VA49","closed","Robertson Airport",37.705399,-77.372498,193,"NA","US","US-VA","Hanover","no",,,,,,"VA49"
25382,"VA50","small_airport","Woods Farm Airstrip",37.7150993347168,-77.30249786376953,57,"NA","US","US-VA","Hanover","no","VA50",,"VA50",,,
25384,"VA52","small_airport","Frank Field",38.4851,-78.945297,1650,"NA","US","US-VA","Harrisonburg","no","VA52",,"VA52",,,"Lester Frank"
25386,"VA54","heliport","Crippen's Heliport",38.976200103759766,-77.32669830322266,350,"NA","US","US-VA","Reston","no","VA54",,"VA54",,,
25387,"VA55","heliport","Summit Heliport",37.364898681640625,-79.90059661865234,1280,"NA","US","US-VA","Roanoke","no","VA55",,"VA55",,,
25388,"VA56","small_airport","Wells Airport",37.003501892089844,-76.82749938964844,88,"NA","US","US-VA","Ivor","no","VA56",,"VA56",,,
25389,"VA57","small_airport","Powhatan Airport",38.24850082397461,-77.21910095214844,60,"NA","US","US-VA","King George","no","VA57",,"VA57",,,
25390,"VA58","small_airport","River Bend Airport",38.90610122680664,-78.44439697265625,606,"NA","US","US-VA","Maurertown","no","VA58",,"VA58",,,
25391,"VA59","closed","Weatherly & Son Airport",36.6357,-76.151603,10,"NA","US","US-VA","Chesapeake","no",,,,,,"VA59"
25392,"VA60","balloonport","Flying Horse Farm Balloonport",39.051498,-77.777496,450,"NA","US","US-VA","Unison","no","VA60",,"VA60",,,
25393,"VA61","small_airport","Lovettsville Airfield",39.26532,-77.653598,529,"NA","US","US-VA","Lovettsville","no","VA61",,"VA61",,,"Scott Airpark"
25394,"VA62","small_airport","The Grass Patch Airport",39.257856,-77.65407,530,"NA","US","US-VA","Lovettsville","no","VA62",,"VA62",,,
25395,"VA63","closed","Twin River Airport",37.679434,-79.4202,720,"NA","US","US-VA","Glasgow","no",,,,,,"VA63"
25396,"VA64","closed","Hill Top Airport",37.41563,-77.954206,254,"NA","US","US-VA","Amelia Court House","no",,,,,,"VA64"
25397,"VA65","closed","Ivy Hill Airport",37.3946,-79.324799,920,"NA","US","US-VA","Lynchburg","no",,,,,,"VA65"
25398,"VA66","small_airport","Breeden Airport",38.607601165771484,-77.56939697265625,210,"NA","US","US-VA","Catlett","no","VA66",,"VA66",,,
25399,"VA67","closed","Homeland Airport",38.570099,-77.934998,404,"NA","US","US-VA","Culpeper","no",,,,,,"VA67"
25400,"VA68","small_airport","Lakeview Aerodrome",37.116908,-79.603844,1020,"NA","US","US-VA","Moneta","no","VA68",,"VA68",,,
25401,"VA69","closed","Armada/Hoffler Business Center Heliport",36.788799,-76.226303,20,"NA","US","US-VA","Chesapeake","no",,,,,,"VA69"
25402,"VA70","heliport","Riverside Walter Reed Hospital Heliport",37.42179870605469,-76.54299926757812,75,"NA","US","US-VA","Gloucester","no","VA70",,"VA70",,,
25403,"VA71","closed","Aden Field",38.648499,-77.532799,210,"NA","US","US-VA","Manassas","no",,,,,,"VA71"
25404,"VA72","small_airport","Covington Airport",36.600101470947266,-80.0386962890625,940,"NA","US","US-VA","Martinsville","no","VA72",,"VA72",,,
25405,"VA73","small_airport","Mazza Airport",37.244789,-77.4939,190,"NA","US","US-VA","Matoaca","no","VA73",,"VA73",,,
25407,"VA75","closed","Smith Field",38.30415,-79.507686,2020,"NA","US","US-VA","Mc Dowell","no",,,,,,"VA75"
25408,"VA76","closed","Baskerville Airport",36.987598,-77.771698,250,"NA","US","US-VA","Mc Kenney","no",,,,,,"VA76"
25409,"VA77","closed","Hanover Air Park",37.694,-77.3769,196,"NA","US","US-VA","Hanover","no",,,,,,"VA77"
25410,"VA78","heliport","White Oak Farm Heliport",37.071552276599995,-76.8744659424,91,"NA","US","US-VA","Surry","no","VA78",,"VA78",,,
25411,"VA79","small_airport","Hickory Tree Farms Airport",38.9529,-77.746902,544,"NA","US","US-VA","The Plains","no","VA79",,"VA79",,,
25412,"VA80","closed","Woodle Airport",37.478802,-77.701897,315,"NA","US","US-VA","Midlothian","no",,,,,,"VA80"
25413,"VA81","small_airport","Cub Field",37.94540023803711,-77.89939880371094,396,"NA","US","US-VA","Mineral","no","VA81",,"VA81",,,
25414,"VA82","heliport","Inova Mount Vernon Hospital Heliport",38.740275,-77.07625,35,"NA","US","US-VA","Alexandria","no","VA82",,"VA82",,,
25415,"VA83","small_airport","Fincastle Airport",37.52239990234375,-79.85199737548828,1140,"NA","US","US-VA","Fincastle","no","VA83",,"VA83",,,
25416,"VA84","heliport","Point Farm Heliport",37.309898376464844,-76.01580047607422,5,"NA","US","US-VA","Cape Charles","no","VA84",,"VA84",,,
25417,"VA85","small_airport","New Castle International Airport",37.48350143432617,-80.09980010986328,1320,"NA","US","US-VA","New Castle","no","VA85",,"VA85",,,
25418,"VA86","closed","Buddy Davis Field",38.689301,-78.706398,1042,"NA","US","US-VA","New Market","no",,,,,,"VA86"
25419,"VA87","closed","Valley View Airport",38.691799,-77.551102,240,"NA","US","US-VA","Nokesville","no",,,,,,"VA87"
25420,"VA88","heliport","Sentara Norfolk General Hospital Heliport",36.86130142211914,-76.30359649658203,10,"NA","US","US-VA","Norfolk","no","VA88",,"VA88",,,
25421,"VA89","closed","Chance Airport",37.564602,-75.9263,6,"NA","US","US-VA","Davis Wharf","no",,,,,,"VA89"
25422,"VA90","closed","Hudgins Farm Ultralightport",37.496799,-76.413597,43,"NA","US","US-VA","Cobbs Creek","no",,,,,,"VA90"
25423,"VA91","closed","Johnson Field",37.704899,-75.726601,38,"NA","US","US-VA","Onancock","no",,,,,,"VA91"
25424,"VA92","small_airport","Peace and Plenty Farm Airport",37.7238,-75.785998,8,"NA","US","US-VA","Onancock","no","VA92",,"VA92",,,
25425,"VA93","small_airport","Ayers Airport",38.90510177612305,-78.65470123291016,1340,"NA","US","US-VA","Columbia Furnace","no","VA93",,"VA93",,,
25426,"VA94","small_airport","Plainview Airport",37.535701751708984,-77.89140319824219,400,"NA","US","US-VA","Powhatan","no","VA94",,"VA94",,,
25427,"VA95","closed","Spring Valley Airport",37.597099,-77.8003,275,"NA","US","US-VA","Powhatan","no",,,,,,"VA95"
25428,"VA96","small_airport","Faber Airport",37.825401306152344,-78.73169708251953,640,"NA","US","US-VA","Lovingston","no","VA96",,"VA96",,,
25429,"VA97","closed","Harris Airport",38.912601,-77.881699,566,"NA","US","US-VA","Rectortown","no",,,,,,"VA97"
25430,"VA98","small_airport","Reedville Airport",37.82820129394531,-76.27330017089844,12,"NA","US","US-VA","Reedville","no","VA98",,"VA98",,,
25431,"VA99","small_airport","Federhart-Ophelia Airport",37.905998,-76.290497,13,"NA","US","US-VA","Reedville","no","VA99",,"VA99",,,"STOLport"
26431,"VAAH","medium_airport","Sardar Vallabh Bhai Patel International Airport",23.0772,72.634697,189,"AS","IN","IN-GJ","Ahmedabad","yes","VAAH","AMD",,,"https://en.wikipedia.org/wiki/Sardar_Vallabhbhai_Patel_International_Airport","Gandhinagar Air Force Station"
26432,"VAAK","medium_airport","Akola Airport",20.698931,77.056883,999,"AS","IN","IN-MM","Akola","no","VAAK","AKD",,,"https://en.wikipedia.org/wiki/Akola_Airport","Shioni Airport"
26433,"VAAU","medium_airport","Aurangabad Airport",19.862699508666992,75.39810180664062,1911,"AS","IN","IN-MM","Aurangabad","yes","VAAU","IXU",,"http://aai.aero/allAirports/aurangabad_generalinfo.jsp","https://en.wikipedia.org/wiki/Aurangabad_Airport","Chikkalthana Airport"
26434,"VABB","large_airport","Chhatrapati Shivaji International Airport",19.0886993408,72.8678970337,39,"AS","IN","IN-MM","Mumbai","yes","VABB","BOM",,"http://www.csia.in/","https://en.wikipedia.org/wiki/Chhatrapati_Shivaji_International_Airport","Bombay, Sahar International Airport"
26435,"VABI","medium_airport","Bilaspur Airport",21.9884,82.111,899,"AS","IN","IN-CT","Bilaspur","yes","VEBU","PAB",,,"https://en.wikipedia.org/wiki/Bilaspur_Airport","VABI"
26436,"VABJ","medium_airport","Bhuj Airport",23.2877998352,69.6701965332,268,"AS","IN","IN-GJ","Bhuj","yes","VABJ","BHJ",,"http://aai.aero/allAirports/bhuj_generalinfo.jsp","https://en.wikipedia.org/wiki/Bhuj_Airport","Bhuj Rudra Mata Air Force Station, Shyamji Krishna Verma, Bhuj Airport"
26437,"VABM","medium_airport","Belagavi Airport",15.8593,74.618301,2487,"AS","IN","IN-KA","Belgaum","yes","VOBM","IXG",,,"https://en.wikipedia.org/wiki/Belgaum_Airport","VABM"
26438,"VABO","medium_airport","Vadodara Airport",22.336201,73.226303,129,"AS","IN","IN-GJ","Vadodara","yes","VABO","BDQ",,"http://aai.aero/allAirports/vadodara_generalinfo.jsp","https://en.wikipedia.org/wiki/Vadodara_Airport","Civil Airport Harni"
26439,"VABP","medium_airport","Raja Bhoj International Airport",23.2875003815,77.3374023438,1711,"AS","IN","IN-MP","Bhopal","yes","VABP","BHO",,"http://aai.aero/allAirports/bhopal_generalinfo.jsp","https://en.wikipedia.org/wiki/Bhopal_Airport",
26440,"VABV","medium_airport","Bhavnagar Airport",21.752199173,72.1852035522,44,"AS","IN","IN-GJ","Bhavnagar","yes","VABV","BHU",,"http://aai.aero/allAirports/bhavnagar.jsp","https://en.wikipedia.org/wiki/Bhavnagar_Airport",
26441,"VADN","medium_airport","Daman Airport",20.434401,72.843201,33,"AS","IN","IN-DH","Daman","no","VADN","NMB",,,"https://en.wikipedia.org/wiki/Daman_Airport",
26442,"VADS","small_airport","Deesa Airport",24.2679,72.204399,485,"AS","IN","IN-GJ","Deesa","no","VADS",,,,"https://en.wikipedia.org/wiki/Deesa_Airport","Disa, Palanpur"
26443,"VAGN","small_airport","Guna Airport",24.654699,77.347298,1600,"AS","IN","IN-MP",,"no","VAGN","GUX",,,,
26444,"VAGO","large_airport","Dabolim Airport",15.3808,73.831398,150,"AS","IN","IN-GA","Vasco da Gama","yes","VOGO","GOI",,,"https://en.wikipedia.org/wiki/Dabolim_Airport","Goa Airport, Dabolim Navy Airbase, दाबोळी विमानतळ"
26445,"VAHB","medium_airport","Hubli Airport",15.361700058,75.08489990230001,2171,"AS","IN","IN-KA","Hubli","yes","VOHB","HBX",,"http://www.airportsindia.org.in/allAirports/hubli_generalinfo.jsp","https://en.wikipedia.org/wiki/Hubli_Airport","VAHB"
512065,"VAHS","large_airport","Rajkot International Airport",22.378824,71.039391,647,"AS","IN","IN-GJ","Rajkot","no","VAHS","HSR",,,"https://en.wikipedia.org/wiki/Rajkot_International_Airport","Hirasar Airport"
26446,"VAID","medium_airport","Devi Ahilyabai Holkar Airport",22.7217998505,75.8011016846,1850,"AS","IN","IN-MP","Indore","yes","VAID","IDR",,"http://aai.aero/allAirports/indore_technicalinfo.jsp","https://en.wikipedia.org/wiki/Devi_Ahilyabai_Holkar_International_Airport",
26447,"VAJB","medium_airport","Jabalpur Airport",23.177799,80.052002,1624,"AS","IN","IN-MP","Jabalpur","yes","VAJB","JLR",,,"https://en.wikipedia.org/wiki/Jabalpur_Airport",
30171,"VAJJ","small_airport","Juhu Aerodrome",19.098100662231445,72.83419799804688,13,"AS","IN","IN-MM","Mumbai","no","VAJJ",,,"http://www.airportsindia.org.in/allAirports/juhu.jsp","https://en.wikipedia.org/wiki/Juhu_Aerodrome","Bombay"
26448,"VAJM","medium_airport","Jamnagar Airport",22.465499877929688,70.01260375976562,69,"AS","IN","IN-GJ","Jamnagar","yes","VAJM","JGA",,,"https://en.wikipedia.org/wiki/Jamnagar_Airport","Jamnagar Air Force Station"
26449,"VAKE","medium_airport","Kandla Airport",23.1127,70.100304,96,"AS","IN","IN-GJ","Kandla","yes","VAKE","IXY",,"http://aai.aero/allAirports/kandla_generalinfo.jsp","https://en.wikipedia.org/wiki/Kandla_Airport",
26450,"VAKJ","medium_airport","Khajuraho Airport",24.8172,79.918602,728,"AS","IN","IN-MP","Khajuraho","yes","VEKO","HJR",,"https://www.aai.aero/en/airports/khajuraho","https://en.wikipedia.org/wiki/Khajuraho_Airport","VAKJ"
26451,"VAKP","medium_airport","Kolhapur Airport",16.6647,74.289398,1996,"AS","IN","IN-MM","Kolhapur","yes","VAKP","KLH",,,"https://en.wikipedia.org/wiki/Kolhapur_Airport",
26452,"VAKS","medium_airport","Keshod Airport",21.317101,70.270401,167,"AS","IN","IN-GJ","Keshod","no","VAKS","IXK",,,"https://en.wikipedia.org/wiki/Keshod_Airport",
340182,"VAMA","small_airport","Mundra Airport",22.834795,69.765408,,"AS","IN","IN-GJ","Mundra","no","VAMA",,,,,
30180,"VAND","medium_airport","Nanded Airport",19.1833,77.316704,1250,"AS","IN","IN-MM","Nanded","yes","VOND","NDC","VOND",,"https://en.wikipedia.org/wiki/Nanded_Airport",
26453,"VANP","medium_airport","Dr. Babasaheb Ambedkar International Airport",21.092199,79.047203,1033,"AS","IN","IN-MM","Nagpur","yes","VANP","NAG",,"http://aai.aero/allAirports/nagpur1_generalinfo.jsp","https://en.wikipedia.org/wiki/Dr._Babasaheb_Ambedkar_International_Airport","Sonegaon Airport, Sonegaon Air Force Station"
26454,"VANR","closed","Gandhinagar Airport",19.963699,73.807602,1959,"AS","IN","IN-MM","Nashik","no",,,,,"https://en.wikipedia.org/wiki/Gandhinagar_Airport","ISK, Nasik Road Airport, VANR"
3301,"VAOZ","medium_airport","Nashik Airport",20.119101,73.912903,1900,"AS","IN","IN-MM","Nasik","yes","VAOZ","ISK",,,"https://en.wikipedia.org/wiki/Nashik_Airport","VA35"
26455,"VAPO","medium_airport","Pune Airport / Lohagaon Air Force Station",18.5821,73.919701,1942,"AS","IN","IN-MM","Pune","yes","VAPO","PNQ",,,"https://en.wikipedia.org/wiki/Pune_Airport","Lohegaon Airport, Lohegaon Air Force Station"
26456,"VAPR","medium_airport","Porbandar Airport",21.649524,69.656405,23,"AS","IN","IN-GJ","Porbandar","yes","VAPR","PBD",,"http://www.airportsindia.org.in/allAirports/porbander.jsp","https://en.wikipedia.org/wiki/Porbandar_Airport",
26457,"VARG","medium_airport","Ratnagiri Airport",17.013599,73.327797,305,"AS","IN","IN-MM",,"no","VARG","RTC",,,"https://en.wikipedia.org/wiki/Ratnagiri_Airport",
26458,"VARK","medium_airport","Rajkot Airport",22.3092002869,70.77950286869999,441,"AS","IN","IN-GJ","Rajkot","yes","VARK","RAJ",,"http://www.airportsindia.org.in/allAirports/rajkot.jsp","https://en.wikipedia.org/wiki/Rajkot_Airport",
26459,"VARP","medium_airport","Swami Vivekananda Airport",21.180401,81.7388,1041,"AS","IN","IN-CT","Raipur","yes","VERP","RPR",,"http://aai.aero/allAirports/raipur_generalinfo.jsp","https://en.wikipedia.org/wiki/Swami_Vivekananda_Airport","VARP, Mana Airport, Raipur Airport"
327452,"VASD","medium_airport","Shirdi Airport",19.688752,74.377354,1926,"AS","IN","IN-MM","Kakadi","yes","VASD","SAG",,,"https://en.wikipedia.org/wiki/Shirdi_Airport","Ahmednagar, Saibaba"
26460,"VASL","medium_airport","Solapur Airport",17.6280002594,75.93479919430001,1584,"AS","IN","IN-MM","Solapur","no","VASL","SSE",,,"https://en.wikipedia.org/wiki/Solapur_Airport","Sholapur"
26461,"VASU","medium_airport","Surat Airport",21.1141,72.741798,16,"AS","IN","IN-GJ","Surat","yes","VASU","STV",,"https://suratinternationalairport.com/","https://en.wikipedia.org/wiki/Surat_Airport",
26462,"VAUD","medium_airport","Maharana Pratap Airport",24.617700576799997,73.89610290530001,1684,"AS","IN","IN-RJ","Udaipur","yes","VAUD","UDR",,"http://www.airportsindia.org.in/allAirports/udaipur_airpo_gi.jsp","https://en.wikipedia.org/wiki/Udaipur_Airport","Dabok Airport"
512355,"VB02","small_airport","Aviosuperficie Megolo",45.996254,8.303132,709,"EU","IT","IT-21","Pieve Vergonte","no",,,"VB02",,,
25433,"VBW","small_airport","Bridgewater Air Park",38.366699,-78.960297,1165,"NA","US","US-VA","Bridgewater","no","KVBW",,"VBW",,,
26463,"VCBI","large_airport","Bandaranaike International Colombo Airport",7.180759906768799,79.88410186767578,30,"AS","LK","LK-1","Colombo","yes","VCBI","CMB",,"http://www.airport.lk/","https://en.wikipedia.org/wiki/Bandaranaike_International_Airport","RAF Negombo, Katunayake International Airport"
26464,"VCCA","medium_airport","Anuradhapura Airport",8.301542,80.42848,324,"AS","LK","LK-7","Anuradhapura","no","VCCA","ACJ",,,"https://en.wikipedia.org/wiki/Anuradhapura_Airport","SLAF Anuradhapura"
26465,"VCCB","medium_airport","Batticaloa Airport",7.70576,81.678802,20,"AS","LK","LK-5","Batticaloa","yes","VCCB","BTC",,,"https://en.wikipedia.org/wiki/Batticaloa_Airport",
26466,"VCCC","medium_airport","Colombo Ratmalana Airport",6.821990013122559,79.88619995117188,22,"AS","LK","LK-1","Colombo","yes","VCCC","RML",,,"https://en.wikipedia.org/wiki/Ratmalana_Airport",
26467,"VCCG","medium_airport","Ampara Airport",7.336745,81.623869,150,"AS","LK","LK-5","Ampara","no","VCCG","ADP",,,"https://en.wikipedia.org/wiki/Amparai_Airport","GOY, Gal Oya Airport"
31927,"VCCH","medium_airport","Hingurakgoda Air Force Base",8.04981,80.9814,170,"AS","LK","LK-7","Polonnaruwa Town","no","VCCH","HIM",,"http://www.airforce.lk/pages.php?pages=hingurakgoda","https://en.wikipedia.org/wiki/Hingurakgoda_Airport","MNH, Minneriya Airport"
26468,"VCCJ","medium_airport","Jaffna International Airport",9.79233,80.070099,33,"AS","LK","LK-4","Jaffna","yes","VCCJ","JAF",,,"https://en.wikipedia.org/wiki/Jaffna_International_Airport","SLAF Palaly, Kankesanturai"
26469,"VCCK","medium_airport","Koggala Airport",5.993680000305176,80.32029724121094,10,"AS","LK","LK-3","Galle","yes","VCCK","KCT",,,"https://en.wikipedia.org/wiki/Koggala_Airport","SLAF Koggala"
26470,"VCCN","small_airport","Katukurunda Air Force Base",6.55212020874,79.9775009155,10,"AS","LK","LK-1","Kalutara","no","VCCN","KTY","VC14",,"https://en.wikipedia.org/wiki/Katukurunda_Airport","SLAF Katukurunda"
4392,"VCCS","small_airport","Sigiriya Air Force Base",7.95667,80.7285,630,"AS","LK","LK-2","Sigiriya","no","VCCS","GIU",,"http://www.airforce.lk/pages.php?pages=sigiriya","https://en.wikipedia.org/wiki/Sigiriya_Airport","VC15, SLAF Sigiriya"
26471,"VCCT","medium_airport","China Bay Airport",8.5385103225708,81.18190002441406,6,"AS","LK","LK-5","Trincomalee","yes","VCCT","TRR",,,"https://en.wikipedia.org/wiki/China_Bay_Airport","SLAF China Bay, RAF China Bay, Trincomalee Airport"
4391,"VCCV","small_airport","Vavuniya Airport",8.741009,80.497845,299,"AS","LK","LK-4","Vavuniya","no","VCCV",,,,,"VC13"
26472,"VCCW","small_airport","Weerawila Airport",6.25449,81.235199,50,"AS","LK","LK-3","Weerawila","no","VCCW","WRZ",,,"https://en.wikipedia.org/wiki/Weerawila_Airport","Wirawila Airport"
309579,"VCRI","large_airport","Mattala Rajapaksa International Airport",6.284467,81.124128,157,"AS","LK","LK-3","Mattala","yes","VCRI","HRI","VCRI","http://www.mria.lk/","https://en.wikipedia.org/wiki/Mattala_Rajapaksa_International_Airport","Hambantota International Airport"
26473,"VDBG","medium_airport","Battambang Airport",13.0956,103.223999,59,"AS","KH","KH-2","Battambang","yes","VDBG","BBM",,,"https://en.wikipedia.org/wiki/Battambang_Airport",
32569,"VDKC","small_airport","Kampong Cham Airport",12.028657,105.441165,148,"AS","KH","KH-3","Kompong Cham","no","VDKC",,,,,
26474,"VDKH","medium_airport","Kampong Chhnang Airport",12.255032,104.564657,56,"AS","KH","KH-4","Kampong Chhnang","no","VDKH","KZC",,,"https://en.wikipedia.org/wiki/Kampong_Chhnang_Airport",
46543,"VDKK","small_airport","Koh Kong Airport",11.613397,102.997084,,"AS","KH","KH-9","Krong Khemara Phoumin","no","VDKK","KKZ",,,,
31781,"VDKT","closed","Kratie Airport",12.489017,106.05469,,"AS","KH","KH-10","Kratie","no",,,,,,"KTI, VDKT"
46544,"VDMK","small_airport","Mondulkiri Airport",12.463648,107.187252,,"AS","KH","KH-11","Sen Monorom","no","VDMK","MWV",,,"https://en.wikipedia.org/wiki/Mondulkiri_Airport",
26475,"VDPP","large_airport","Phnom Penh International Airport",11.5466,104.844002,40,"AS","KH","KH-12","Phnom Penh (Pou Senchey)","yes","VDPP","PNH",,"http://www.cambodia-airports.com/phnompenh/en/","https://en.wikipedia.org/wiki/Phnom_Penh_International_Airport","Pochentong International Airport"
35306,"VDRK","medium_airport","Ratanakiri Airport",13.729999542236328,106.98699951171875,,"AS","KH","KH-16","Ratanakiri","no","VDRK","RBE",,,"https://en.wikipedia.org/wiki/Ratanankiri_Airport",
513482,"VDSA","large_airport","Siem Reap-Angkor International Airport",13.369167,104.223056,191,"AS","KH","KH-17","Siem Reap","yes","VDSA","SAI",,,"https://en.wikipedia.org/wiki/Siem_Reap–Angkor_International_Airport",
26476,"VDSR","closed","Siem Reap International Airport",13.41155,103.813044,60,"AS","KH","KH-17","Siem Reap","yes",,,,"http://www.cambodia-airports.com/siemreap/en","https://en.wikipedia.org/wiki/Siem_Reap_International_Airport","Angkor International Airport, REP, VDSR"
26477,"VDST","heliport","Stung Treng Airport",13.5319,106.014999,203,"AS","KH","KH-19","Stung Treng","no","VDST","TNX",,,"https://en.wikipedia.org/wiki/Stung_Treng_Airport",
26478,"VDSV","small_airport","Sihanoukville International Airport",10.569498,103.631001,33,"AS","KH","KH-18","Preah Sihanouk","yes","VDSV","KOS",,"http://www.sihanoukville-cambodia.com/about-sihanoukville/airport.html","https://en.wikipedia.org/wiki/Sihanoukville_International_Airport","Kompong Som"
313338,"VDSY","small_airport","Krakor Airport",12.5385,104.1486,62,"AS","KH","KH-15","Krakor","no","VDSY","KZD",,,"https://en.wikipedia.org/wiki/Krakor_Airport",
40350,"VE-0001","small_airport","Acañana Airport",3.233333110809326,-65.94999694824219,418,"SA","VE","VE-Z",,"no",,,,,,
40351,"VE-0002","heliport","Acañana Heliport",3.233333110809326,-65.94999694824219,460,"SA","VE","VE-Z",,"no",,,,,,
40352,"VE-0003","heliport","Acarigua Heliport",9.542195,-69.241566,705,"SA","VE","VE-P","Acarigua","no",,,,,,
40353,"VE-0004","heliport","Accro  Heliport",9.579999923706055,-63.63516616821289,643,"SA","VE","VE-N",,"no",,,,,,
40354,"VE-0005","heliport","Aeroatun  Heliport",10.471667289733887,-64.18499755859375,11,"SA","VE","VE-R","Cumaná","no",,,,,,
40355,"VE-0006","heliport","Aeroservicios Ranger  Heliport",7.300556182861328,-61.50138854980469,525,"SA","VE","VE-F","Tumeremo","no",,,,,,
40356,"VE-0007","heliport","Aerotécnica  Heliport",9.538128,-69.223776,720,"SA","VE","VE-P","Acarigua","no",,,,,,
40357,"VE-0008","small_airport","Agropecuaria Cuajarote Airport",9.258333206176758,-67.55833435058594,400,"SA","VE","VE-J",,"no",,,,,,
40358,"VE-0009","heliport","Aguasay  Heliport",9.421667098999023,-63.73833465576172,634,"SA","VE","VE-N","Aguasay","no",,,,,,
40359,"VE-0010","heliport","Alto Ipare  Heliport",9.87166690826416,-66.30833435058594,1278,"SA","VE","VE-J","Altagracia de Orituco","no",,,,,,
40360,"VE-0011","heliport","Araguay Mujo  Heliport",9.933333396911621,-63.5,757,"SA","VE","VE-N","Aragua de Maturín","no",,,,,,
40361,"VE-0012","small_airport","Arekuna Airport",6.483333110809326,-62.891666412353516,1192,"SA","VE","VE-F","Canaima","no",,,,,,
40362,"VE-0013","heliport","Aripao  Heliport",7.0391669273376465,-65.1675033569336,259,"SA","VE","VE-F",,"no",,,,,,
40363,"VE-0014","small_airport","Arismendi Airport",8.484167098999023,-68.366943359375,225,"SA","VE","VE-E","Arismendi","no",,,,,,
40364,"VE-0015","small_airport","Asisa (Alto Asisa) Airpòrt",4.468889236450195,-65.7691650390625,786,"SA","VE","VE-Z",,"no",,,,,,
40365,"VE-0016","small_airport","Asita Airport",5.199999809265137,-65.58333587646484,690,"SA","VE","VE-Z",,"no",,,,,,
40366,"VE-0017","heliport","Avila  Heliport",10.481332778930664,-66.70649719238281,1808,"SA","VE","VE-M","Caracas","no",,,,,,
40367,"VE-0018","heliport","Balgres  Heliport",10.15250015258789,-66.7471694946289,600,"SA","VE","VE-M",,"no",,,,,,
40368,"VE-0019","heliport","Bancomara  Heliport",10.658332824707031,-71.61000061035156,158,"SA","VE","VE-V","Maracaibo","no",,,,,,
40369,"VE-0020","heliport","Barrancas  Heliport",8.699999809265137,-62.20500183105469,42,"SA","VE","VE-N","Barrancas","no",,,,,,
40370,"VE-0021","small_airport","Belen Airport",3.74666690826416,-65.76333618164062,577,"SA","VE","VE-Z","Culebra","no",,,,,,
40371,"VE-0022","heliport","Boca de Uracoa  Heliport",9.121832847595215,-62.32350158691406,8,"SA","VE","VE-N","Boca de Uracoa","no",,,,,,
40372,"VE-0023","small_airport","Buena Vista del Caño Airport",3.5,-65.33333587646484,680,"SA","VE","VE-Z",,"no",,,,,,
40373,"VE-0024","heliport","Buena Vista Heliport",9.356833457946777,-64.51882934570312,524,"SA","VE","VE-B",,"no",,,,,,
40374,"VE-0025","heliport","Buja  Heliport",9.583333015441895,-62.654998779296875,43,"SA","VE","VE-N","San José de Buja","no",,,,,,
40375,"VE-0026","heliport","Cabimas Hilton  Heliport",10.466667175292969,-71.44999694824219,120,"SA","VE","VE-V","Las Múcuras","no",,,,,,
40376,"VE-0027","small_airport","Cabuya Airport",4.062468,-66.828305,358,"SA","VE","VE-Z","Canaripo","no",,,,,,
40377,"VE-0028","small_airport","Cacuri Airport",4.821667194366455,-65.33999633789062,857,"SA","VE","VE-Z",,"no",,,,,,
40378,"VE-0029","small_airport","Cacurito Airport",6.050000190734863,-66.9000015258789,814,"SA","VE","VE-F",,"no",,,,,,
40379,"VE-0030","heliport","Caicara de Maturín  Heliport",9.80666732788086,-63.60499954223633,550,"SA","VE","VE-N","Caicara de Maturín","no",,,,,,
40380,"VE-0031","small_airport","Camani Airport",5.108333110809326,-66.25833129882812,370,"SA","VE","VE-Z",,"no",,,,,,
40381,"VE-0032","small_airport","Camatagua Airport",9.8114595413208,-66.8927993774414,881,"SA","VE","VE-D","Camatagua","no",,,,,,
40382,"VE-0033","small_airport","Campo de Palma Airport",8.620490074157715,-72.22599792480469,87,"SA","VE","VE-V",,"no",,,,,,
40383,"VE-0034","small_airport","Caño Iguana Sur Airport",5.050000190734863,-65.61666870117188,518,"SA","VE","VE-Z",,"no",,,,,,
40384,"VE-0035","small_airport","Caño Santo Airport",5.550000190734863,-66.25,730,"SA","VE","VE-Z",,"no",,,,,,
40385,"VE-0036","heliport","Capitán Alfredo Sierra  Heliport",10.118332862854004,-71.23833465576172,21,"SA","VE","VE-V","Lagunillas","no",,,,,,
40386,"VE-0037","heliport","Capure  Heliport",9.966667175292969,-62.150001525878906,16,"SA","VE","VE-Y",,"no",,,,,,
40387,"VE-0038","heliport","Caribe (Simón Bolívar Internacional)  Heliport",10.598333358800001,-66.9966659546,316,"SA","VE","VE-X","Caracas","no",,,,,,
40388,"VE-0039","heliport","Caripe  Heliport",10.155555725097656,-63.5,4255,"SA","VE","VE-N","Caripe","no",,,,,,
40389,"VE-0040","heliport","Caripito  Heliport",10.106200218200684,-63.0974006652832,137,"SA","VE","VE-N","Caripiro","no",,,,,,
40390,"VE-0041","small_airport","Carona Airport",4.599999904632568,-63.93333435058594,1169,"SA","VE","VE-F","Simaraña","no",,,,,,
40391,"VE-0042","small_airport","Cayoateri (Coyowateli) Airport",2.4215199947357178,-64.29730224609375,812,"SA","VE","VE-Z",,"no",,,,,,
40392,"VE-0043","small_airport","Ceibana Airport",9.406339645385742,-71.03829956054688,41,"SA","VE","VE-T",,"no",,,,,,
40393,"VE-0044","heliport","Centro Lago I  Heliport",9.873332977294922,-71.45500183105469,33,"SA","VE","VE-V",,"no",,,,,,
40394,"VE-0045","heliport","Centro Miranda  Heliport",10.648332595825195,-71.62999725341797,138,"SA","VE","VE-V","Maracaibo","no",,,,,,
40395,"VE-0046","small_airport","Cerro Bolívar Airport",7.5,-63.400001525878906,492,"SA","VE","VE-F",,"no",,,,,,
40396,"VE-0047","heliport","Cerro El Divorcio  Heliport",10.091667175292969,-63.80699920654297,4930,"SA","VE","VE-N","Cerro El Divorcio","no",,,,,,
40397,"VE-0048","heliport","Cerro El Escondido  Heliport",10.419333457946777,-63.27299880981445,865,"SA","VE","VE-R","Buena Esperanza","no",,,,,,
40398,"VE-0049","heliport","Cerro Negro  Heliport",10.213333129882812,-63.5716667175293,5133,"SA","VE","VE-N","Cerro Negro","no",,,,,,
40399,"VE-0050","small_airport","Chajuraña Airport",5.1483330726623535,-64.84833526611328,1114,"SA","VE","VE-F",,"no",,,,,,
40400,"VE-0051","small_airport","Chaparalito Airport",6.5883331298828125,-68.28666687011719,224,"SA","VE","VE-C",,"no",,,,,,
40401,"VE-0052","small_airport","Chivapure Airport",6.033332824707031,-66.26667022705078,1154,"SA","VE","VE-F",,"no",,,,,,
40402,"VE-0053","small_airport","Chorobobo Airport",10.033332824707031,-69.25,1467,"SA","VE","VE-K",,"no",,,,,,
40403,"VE-0054","heliport","Clínica Avila Heliport",10.516500473022461,-66.86609649658203,3106,"SA","VE","VE-A","Chacao","no",,,,,,
40404,"VE-0055","heliport","Corporación Venezolana de Televisión  Heliport",10.500100135803223,-66.8677978515625,3020,"SA","VE","VE-M","La Carlota","no",,,,,,
40405,"VE-0056","small_airport","Coshiloateri Airport",3.0833330154418945,-65.81500244140625,450,"SA","VE","VE-Z",,"no",,,,,,
40406,"VE-0057","small_airport","El Carmen Airport",6.150000095367432,-67.06666564941406,213,"SA","VE","VE-F",,"no",,,,,,
40407,"VE-0058","small_airport","El Cedral Airport",7.431666851043701,-69.32666778564453,285,"SA","VE","VE-C","Apure","no",,,,,,
40408,"VE-0059","small_airport","El Diamante Airport",6.434721946716309,-65.81888580322266,948,"SA","VE","VE-F",,"no",,,,,,
40409,"VE-0060","heliport","El Encantado  Heliport",10.45199966430664,-66.7947998046875,328,"SA","VE","VE-M","El Encantado","no",,,,,,
40410,"VE-0061","small_airport","El Millanero Airport",8.316666603088379,-67.11166381835938,192,"SA","VE","VE-J",,"no",,,,,,
40411,"VE-0062","small_airport","El Samán de Barinas Airport",8.543333053588867,-70.16666412353516,510,"SA","VE","VE-E",,"no",,,,,,
40412,"VE-0063","small_airport","El Samán de Guárico Airport",8.824999809265137,-67.0183334350586,334,"SA","VE","VE-J",,"no",,,,,,
40413,"VE-0064","heliport","Ensco III  Heliport",10.046667098999023,-71.586669921875,10,"SA","VE","VE-V",,"no",,,,,,
40414,"VE-0065","heliport","Ensco IV Heliport",9.585832595825195,-71.4669418334961,,"SA","VE","VE-V",,"no",,,,,,
40415,"VE-0066","heliport","Ensco VI  Heliport",9.598210334777832,-66.1355972290039,10,"SA","VE","VE-J",,"no",,,,,,
40416,"VE-0067","small_airport","Entrerios Airport",5.9583330154418945,-64.43333435058594,921,"SA","VE","VE-F",,"no",,,,,,
40417,"VE-0068","small_airport","Erebastina Airport",5.133333206176758,-64.8499984741211,1250,"SA","VE","VE-F",,"no",,,,,,
40418,"VE-0069","heliport","Evhelca  Heliport",10.471667289733887,-64.19000244140625,35,"SA","VE","VE-R","Cumaná","no",,,,,,
40419,"VE-0070","heliport","Florida  Heliport",10.483332633972168,-66.75,3154,"SA","VE","VE-M",,"no",,,,,,
40420,"VE-0071","heliport","Florida Hill  Heliport",10.475099563598633,-66.7698974609375,3500,"SA","VE","VE-M",,"no",,,,,,
40421,"VE-0072","heliport","Fumyteca  Heliport",10.158332824707031,-68.9316635131836,787,"SA","VE","VE-U",,"no",,,,,,
40422,"VE-0073","heliport","Galáctica  Heliport",10.479999542236328,-66.64833068847656,1345,"SA","VE","VE-M","El Cercado","no",,,,,,
40423,"VE-0074","heliport","Gaston  Heliport",10.399999618530273,-67.00833129882812,3500,"SA","VE","VE-M",,"no",,,,,,
40424,"VE-0075","small_airport","Guanarito Airport",8.673333168029785,-69.18499755859375,304,"SA","VE","VE-P",,"no",,,,,,
40425,"VE-0076","small_airport","Guanay Airport",5.682809829711914,-66.35800170898438,501,"SA","VE","VE-Z",,"no",,,,,,
40426,"VE-0077","small_airport","Guaviarito Airport",5.633333206176758,-66.21666717529297,1140,"SA","VE","VE-Z",,"no",,,,,,
40427,"VE-0078","heliport","Guiniquina Heliport",9.191944122314453,-61.09138870239258,53,"SA","VE","VE-Y",,"no",,,,,,
40428,"VE-0079","small_airport","Hacienda Bella Vista Airport",8.050000190734863,-69.8499984741211,266,"SA","VE","VE-E",,"no",,,,,,
40429,"VE-0080","small_airport","Hacienda El Oasis Airport",8.376270294189453,-69.97840118408203,356,"SA","VE","VE-E","La Palmita","no",,,,,,
40430,"VE-0081","small_airport","Hato Aguaro Airport",8.116666793823242,-66.58333587646484,159,"SA","VE","VE-J",,"no",,,,,,
40431,"VE-0082","small_airport","Hato El Cujicito Airport",8.966667175292969,-67.80000305175781,245,"SA","VE","VE-J",,"no",,,,,,
40432,"VE-0083","small_airport","Hato El Gallo de Oro Airport",8.84000015258789,-63.60166549682617,565,"SA","VE","VE-B",,"no",,,,,,
40433,"VE-0084","small_airport","Hato El Samán Airport",8.805000305175781,-67.13166809082031,325,"SA","VE","VE-J",,"no",,,,,,
40434,"VE-0085","small_airport","Hato El Socorro Airport",8.991666793823242,-68.2249984741211,388,"SA","VE","VE-H","El Socorro","no",,,,,,
40435,"VE-0086","small_airport","Hato Guaribe Airport",9.838333129882812,-63.573333740234375,727,"SA","VE","VE-N",,"no",,,,,,
40436,"VE-0087","small_airport","Hato Los Pozos Airport",9.635000228881836,-65.80332946777344,665,"SA","VE","VE-J",,"no",,,,,,
40437,"VE-0088","small_airport","Hato Rancho Novillero Airport",8.78499984741211,-63.73833465576172,631,"SA","VE","VE-B",,"no",,,,,,
40438,"VE-0089","small_airport","Hato San Antonio Airport",9.050000190734863,-67.6500015258789,294,"SA","VE","VE-J",,"no",,,,,,
40439,"VE-0090","small_airport","Hato San Francisco Airport",7.668333053588867,-69.32499694824219,623,"SA","VE","VE-C",,"no",,,,,,
40440,"VE-0091","small_airport","Hato San Leonardo Airport",6.989999771118164,-68.26166534423828,511,"SA","VE","VE-C",,"no",,,,,,
40441,"VE-0092","small_airport","Hato Servio Tulio Airport",8.704999923706055,-64.62000274658203,520,"SA","VE","VE-B","Las Matas","no",,,,,,
40442,"VE-0093","small_airport","Hato Yavi Airport",5.589670181274414,-65.86070251464844,415,"SA","VE","VE-Z",,"no",,,,,,
40443,"VE-0094","heliport","Heliyasa  Heliport",10.116666793823242,-69.08333587646484,1017,"SA","VE","VE-U","La Piedra","no",,,,,,
40444,"VE-0095","heliport","Isla de Tigre  Heliport",9.569999694824219,-62.43669891357422,20,"SA","VE","VE-Y","Isla de Tigre","no",,"ELX",,,,
40445,"VE-0096","small_airport","Isla Ratón Airport",5.050278186798096,-67.81722259521484,302,"SA","VE","VE-Z",,"no",,,,,,
40446,"VE-0097","heliport","Jose  Heliport",10.069899559020996,-64.8678970336914,40,"SA","VE","VE-B","El José","no",,,,,,
40447,"VE-0098","small_airport","Juan Mateo Airport",7.431666851043701,-68.13666534423828,192,"SA","VE","VE-C","Juan Mateo","no",,,,,,
40448,"VE-0099","small_airport","Junglaven Airport",5.050000190734863,-66.23332977294922,404,"SA","VE","VE-Z",,"no",,,,,,
40449,"VE-0100","small_airport","Kanarakuni Norte Airport",4.433332920074463,-64.13333129882812,1374,"SA","VE","VE-F",,"no",,,,,,
40450,"VE-0101","small_airport","Kanarakuni Sur Airport",4.4166669845581055,-64.11666870117188,1503,"SA","VE","VE-F",,"no",,,,,,
40451,"VE-0102","small_airport","Kanaripo Airport",4.066667079925537,-66.94999694824219,302,"SA","VE","VE-Z",,"no",,,,,,
40452,"VE-0103","small_airport","Kavac Airport",5.71196,-62.409559,1600,"SA","VE","VE-F",,"no",,,,,,
40453,"VE-0104","small_airport","La Bendición Ramera Airport",7.483333110809326,-68.9000015258789,236,"SA","VE","VE-C",,"no",,,,,,
40454,"VE-0105","small_airport","La Cantara Airport",8.716667175292969,-69.24166870117188,297,"SA","VE","VE-P",,"no",,,,,,
40455,"VE-0106","heliport","La Concepción  Heliport",10.618332862854004,-71.8183364868164,259,"SA","VE","VE-V","La Concepción","no",,,,,,
40456,"VE-0107","small_airport","Aeropuerto La Esmeralda",3.166667,-65.533333,375,"SA","VE","VE-Z","La Esmeralda","no","SVLE",,,,,
40457,"VE-0108","heliport","La Ladera Heliport",9.290833473205566,-62.288333892822266,17,"SA","VE","VE-Y",,"no",,,,,,
40458,"VE-0109","small_airport","La Tortuga Punta Arena Airport",10.9266996383667,-65.40889739990234,3,"SA","VE","VE-O","Isla La Tortuga","no",,,,,,
40459,"VE-0110","small_airport","La Trinidad De Amazonas Airport",5.099999904632568,-65.93333435058594,441,"SA","VE","VE-Z",,"no",,,,,,
40460,"VE-0111","small_airport","La Yegua Airport",8.731666564941406,-68.47000122070312,213,"SA","VE","VE-H",,"no",,,,,,
40461,"VE-0112","heliport","Lago Guanoco  Heliport",10.199999809265137,-62.866668701171875,9,"SA","VE","VE-R","Guariquén","no",,,,,,
40462,"VE-0113","heliport","Lagunillas  Heliport",10.133333206176758,-71.25,2469,"SA","VE","VE-V","Lagunillas","no",,,,,,
40463,"VE-0114","small_airport","Lagunillas Airport",10.12399959564209,-71.23799896240234,2469,"SA","VE","VE-V","Lagunillas","no",,"LGY",,,,
40464,"VE-0115","heliport","Lamargas  Heliport",9.65999984741211,-71.6449966430664,46,"SA","VE","VE-V",,"no",,,,,,
40465,"VE-0116","small_airport","Las Carmelitas de Apure Airport",7.211667060852051,-69.8499984741211,426,"SA","VE","VE-C",,"no",,,,,,
40466,"VE-0117","small_airport","Las Mercedes Capanaparo Airport",6.953951,-67.241082,160,"SA","VE","VE-C","La Villeguera","no",,,,,,
40467,"VE-0118","heliport","Loma Azul  Heliport",10.5916671753,-67.063331604,181,"SA","VE","VE-X","Mamo","no",,,,,,
40468,"VE-0119","small_airport","Los Caballos Airport",9.311667442321777,-68.163330078125,290,"SA","VE","VE-H","Los Caballos","no",,,,,,
40469,"VE-0120","small_airport","Luisa Airport",9.616666793823242,-68.4000015258789,407,"SA","VE","VE-H",,"no",,,,,,
40470,"VE-0121","small_airport","Macagua Airport",8.276666641235352,-62.39833450317383,1952,"SA","VE","VE-F",,"no",,,,,,
40471,"VE-0122","small_airport","Majagua Airport",5.466667175292969,-65.91666412353516,416,"SA","VE","VE-Z",,"no",,,,,,
40472,"VE-0123","small_airport","Majawa Airport",5.133333206176758,-65.03333282470703,1938,"SA","VE","VE-Z",,"no",,,,,,
40473,"VE-0124","small_airport","Majawana Airport",5.233333110809326,-64.9000015258789,2042,"SA","VE","VE-F",,"no",,,,,,
40474,"VE-0125","heliport","Mantenimiento Del Via  SRL Heliport",10.6162004471,-66.8252029419,10,"SA","VE","VE-X",,"no",,,,,,
40475,"VE-0126","small_airport","Maraca Airport",5.966667175292969,-66.91666412353516,755,"SA","VE","VE-F",,"no",,,,,,
40476,"VE-0127","small_airport","Marieta Airport",5.164999961853027,-66.5250015258789,392,"SA","VE","VE-Z",,"no",,,,,,
40477,"VE-0128","small_airport","Marueta Airport",4.301667213439941,-66.29666900634766,383,"SA","VE","VE-Z",,"no",,,,,,
40478,"VE-0129","small_airport","Mata de Bárbara Airport",8.416666984558105,-68.44999694824219,262,"SA","VE","VE-E",,"no",,,,,,
40479,"VE-0130","small_airport","Mata de Guama Airport",7.989630222320557,-69.2782974243164,256,"SA","VE","VE-C",,"no",,,,,,
40480,"VE-0131","small_airport","Mavaca I Airport",2.537709951400757,-65.20279693603516,532,"SA","VE","VE-Z",,"no",,,,,,
40481,"VE-0132","small_airport","Mavaca II Airport",2.5206899642944336,-65.1990966796875,1154,"SA","VE","VE-Z",,"no",,,,,,
40482,"VE-0133","small_airport","Mawhishiña Airport",4.1666669845581055,-65.19999694824219,4011,"SA","VE","VE-Z",,"no",,,,,,
40483,"VE-0134","small_airport","Mayobateli Airport",2.733333110809326,-64.08333587646484,3500,"SA","VE","VE-Z",,"no",,,,,,
40484,"VE-0135","heliport","Melia Caribe  Heliport",10.6153478622,-66.84023284909999,7,"SA","VE","VE-X","La Guaira","no",,,,,,
40485,"VE-0136","heliport","Mene Grande Heliport",9.716667175292969,-71.17832946777344,66,"SA","VE","VE-V",,"no",,,,,,
40486,"VE-0137","small_airport","Menoreño Airport",7.131667137145996,-69.23332977294922,269,"SA","VE","VE-C",,"no",,,,,,
40487,"VE-0138","small_airport","Mikuski Airport",5.5833330154418945,-65.94999694824219,517,"SA","VE","VE-Z",,"no",,,,,,
40488,"VE-0139","small_airport","Misión Padamo Airport",3,-65.28333282470703,528,"SA","VE","VE-Z",,"no",,,,,,
40489,"VE-0140","small_airport","Moriche Airport",4.716667175292969,-66.33333587646484,381,"SA","VE","VE-Z",,"no",,,,,,
40490,"VE-0141","heliport","Motatan II  Heliport",9.62166690826416,-70.80833435058594,98,"SA","VE","VE-T","Santa Isabel","no",,,,,,
40491,"VE-0142","heliport","Muelle B. Uracoa Heliport",9.12527847290039,-62.32805633544922,15,"SA","VE","VE-N",,"no",,,,,,
40492,"VE-0143","heliport","Muelle Seco  Heliport",10.237099647521973,-64.6343994140625,145,"SA","VE","VE-B","Puerto La Cruz","no",,,,,,
40493,"VE-0144","small_airport","Ocamo Airport",2.7895898818969727,-65.216796875,415,"SA","VE","VE-Z",,"no",,,,,,
40494,"VE-0145","small_airport","Pacicuchero Airport",6.599999904632568,-68.43333435058594,209,"SA","VE","VE-C",,"no",,,,,,
40495,"VE-0146","small_airport","Parima Airport",2.7833330631256104,-64.23332977294922,2850,"SA","VE","VE-Z",,"no",,,,,,
40496,"VE-0147","heliport","Parque Central  Heliport",10.50100040435791,-66.90129852294922,2869,"SA","VE","VE-A","Caracas","no",,,,,,
40497,"VE-0148","small_airport","Parupa Airport",5.4816670417785645,-63.621665954589844,1038,"SA","VE","VE-F",,"no",,,,,,
40498,"VE-0149","heliport","Pedeca  Heliport",10.452500343322754,-66.92350006103516,2988,"SA","VE","VE-A","Caracas","no",,,,,,
40499,"VE-0150","small_airport","Pendare Airport",6.102089881896973,-67.06849670410156,193,"SA","VE","VE-F",,"no",,,,,,
40500,"VE-0151","small_airport","Pista Larga Airport",5.983333110809326,-66.23332977294922,1379,"SA","VE","VE-F",,"no",,,,,,
40501,"VE-0152","heliport","Planta de Vapor HH-8  Heliport",10.116666793823242,-71.53333282470703,65,"SA","VE","VE-V",,"no",,,,,,
40502,"VE-0153","heliport","Planta Lagogas I Heliport",10.125,-71.53500366210938,66,"SA","VE","VE-V",,"no",,,,,,
40503,"VE-0154","heliport","Planta Lama  Heliport",9.933500289916992,-71.6433334350586,43,"SA","VE","VE-V",,"no",,,,,,
40504,"VE-0155","heliport","Planta Procesos la Paz  Heliport",10.701666831970215,-71.96700286865234,86,"SA","VE","VE-V","La Paz","no",,,,,,
40505,"VE-0156","heliport","Planta Procesos Mara  Heliport",10.880000114440918,-71.88666534423828,88,"SA","VE","VE-V","Campo Mara","no",,,,,,
40506,"VE-0157","heliport","Planta Sidor  Heliport",5.699260234832764,-67.59950256347656,187,"SA","VE","VE-Z","Puerto Ayacucho","no",,,,,,
40507,"VE-0158","heliport","Planta Sisor I  Heliport",8.084444046020508,-63.40194320678711,403,"SA","VE","VE-F",,"no",,,,,,
40508,"VE-0159","heliport","Planta Sisor II  Heliport",8.239999771118164,-62.866668701171875,366,"SA","VE","VE-F","Puerto Ordaz","no",,,,,,
40509,"VE-0160","heliport","Planta Sisor III  Heliport",8.966699600219727,-64.20249938964844,243,"SA","VE","VE-B",,"no",,,,,,
40510,"VE-0161","small_airport","Platanal Airport",2.429229974746704,-64.90859985351562,543,"SA","VE","VE-Z",,"no",,,,,,
40511,"VE-0162","heliport","Prosomaca  Heliport",9.84000015258789,-66.38666534423828,984,"SA","VE","VE-J","Altagracia de Orituco","no",,,,,,
40512,"VE-0163","heliport","Protinal  Heliport",10.18166732788086,-67.97666931152344,1487,"SA","VE","VE-G","Valencia","no",,,,,,
40513,"VE-0164","heliport","Pueblo Nuevo  Heliport",9.942333221435547,-64.05783081054688,1871,"SA","VE","VE-B",,"no",,,,,,
40514,"VE-0165","small_airport","Punta de Mata Airport",9.666666984558105,-63.650001525878906,553,"SA","VE","VE-B","Punta de Mata","no",,,,,,
40515,"VE-0166","heliport","Punta de Palma  Heliport",10.4399995803833,-71.62999725341797,3,"SA","VE","VE-V","Palmarejo","no",,,,,,
40516,"VE-0167","heliport","Punta Diablito  Heliport",9.440667152404785,-62.40299987792969,4,"SA","VE","VE-Y",,"no",,,,,,
40517,"VE-0168","heliport","Quiriquiri  Heliport",9.971667289733887,-63.2216682434082,184,"SA","VE","VE-N","Quiriquiri","no",,,,,,
40518,"VE-0169","small_airport","Rancho Pando Airport",4.800000190734863,-65.38333129882812,880,"SA","VE","VE-Z",,"no",,,,,,
40519,"VE-0170","small_airport","Raudales de Danta Airport",5.045000076293945,-67.55500030517578,321,"SA","VE","VE-Z",,"no",,,,,,
40520,"VE-0171","heliport","Raulera  Heliport",10.032221794128418,-64.04638671875,4658,"SA","VE","VE-B",,"no",,,,,,
